     2.10           OBSERVATION DATA    G (GPS)             RINEX VERSION / TYPE
teqc  2006Sep26     WCDA Operator       20070102 00:10:42UTCPGM / RUN BY / DATE
Solaris 5.9|UltraSparc IIi|cc -xarch=v9 SC5.5|=+-|*Sparc    COMMENT
teqc  2006Sep26     WCDA Operator       20070102 00:10:30UTCCOMMENT
teqc  2006Sep26     WCDA Operator       20070101 01:07:45UTCCOMMENT
albh  WCDA-ACP   927000   Victoria BC Canada                MARKER NAME
40129M003                                                   MARKER NUMBER
PGC-WCDA            GEOL. SURV. CANADA                      OBSERVER / AGENCY
1113                AOA BENCHMARK ACT   3.3.32.2N lk 99/07/2REC # / TYPE / VERS
99442               AOAD/M_T        SCIS                    ANT # / TYPE
 -2341332.8840 -3539049.5090  4745791.3600                  APPROX POSITION XYZ
        0.1000        0.0000        0.0000                  ANTENNA: DELTA H/E/N
     1     1                                                WAVELENGTH FACT L1/2
     7    C1    P1    P2    L1    L2    S1    S2            # / TYPES OF OBSERV
STATION INFORMATION EFFECTIVE FROM: 2005/10/12 16:45:00     COMMENT
                                TO: CURRENT DATE (above)    COMMENT
BIT 2 OF LLI FLAGS (+4) DATA COLLECTED UNDER 'AS' CONDITION COMMENT
L1 PHASE CENTRE 0.110m ABOVE ARP                            COMMENT
L2 PHASE CENTRE 0.128m ABOVE ARP                            COMMENT
where ARP is the Antenna Reference Point for HI measurement COMMENT
CONTACT gps@pgc.nrcan.gc.ca FOR ADDITIONAL INFORMATION      COMMENT
    P1 =    P1  TurboRogue; =    Y1  Benchmark              COMMENT
    L1 = L1(CA)                                             COMMENT
    P2 =    P2  TurboRogue; =    Y2  Benchmark              COMMENT
    L2 = L2(P2) TurboRogue; = L2(Y2) Benchmark              COMMENT
 SNR is mapped to RINEX snr flag value [0-9]                COMMENT
  L1 & L2: min(max(int(snr_dBHz/6), 0), 9)                  COMMENT
  2007     1     1     0     0    0.0000000     GPS         TIME OF FIRST OBS
                                                            END OF HEADER
 07  1  1  0  0  0.0000000  0 10G16G21G29G18G26G10G24G 6G15G 7
  22581697.779    22581697.177    22581695.185    -8973928.686 5  -6992666.811 4
        35.200          29.700
  20698127.927    20698127.404    20698124.106   -22432093.211 7 -17479545.229 7
        46.500          44.400
  22708251.212    22708251.090    22708249.232    -8985450.879 4  -7001642.266 4
        29.000          27.400
  22451273.511    22451272.930    22451270.463   -12693765.550 6  -9891237.036 4
        37.700          29.500
  22697532.473    22697532.196    22697531.042    -8878471.901 4  -6918283.801 4
        29.000          25.600
  23445664.779    23445663.158    23445663.052    -5439350.042 3  -4238439.310 3
        23.800          23.000
  24814742.490    24814742.709    24814742.229     1996691.316 2   1555867.444
        13.900           3.000
  20857582.237    20857582.016    20857580.516   -19771364.963 7 -15406250.872 6
        44.800          40.000
  21671184.139    21671183.584    21671182.620   -15294059.277 6 -11917442.534 6
        41.800          36.200
  20418227.176    20418226.502    20418225.415   -22450293.583 7 -17493727.016 7
        46.800          45.900
 07  1  1  0  0 30.0000000  0 10G16G21G29G18G26G10G24G 6G15G 7
  22578267.422    22578266.780    22578264.492    -8991956.318 5  -7006714.301 4
        35.700          29.500
  20690852.679    20690852.133    20690848.942   -22470324.232 7 -17509335.626 7
        46.400          44.500
  22701320.456    22701320.629    22701319.111    -9021869.452 4  -7030020.367 4
        29.500          27.900
  22434105.534    22434104.826    22434102.344   -12783984.120 6  -9961537.202 4
        37.600          29.200
  22683493.443    22683493.221    22683491.972    -8952249.058 4  -6975772.452 4
        29.900          25.900
  23465154.230    23465153.542    23465152.063    -5336932.207 4  -4158633.220 3
        27.400          21.100
  24832265.267    24832265.129    24832265.503     2088774.056 2   1627620.202
        15.100           3.000
  20868360.224    20868359.948    20868358.438   -19714726.615 7 -15362117.087 6
        44.700          40.000
  21657360.762    21657360.042    21657359.005   -15366702.392 6 -11974047.519 6
        41.900          36.100
  20422836.319    20422835.522    20422834.429   -22426072.926 7 -17474853.770 7
        46.700          45.800
 07  1  1  0  1  0.0000000  0 10G16G21G29G18G26G10G24G 6G15G 7
  22574947.767    22574947.426    22574945.339    -9009399.085 5  -7020306.048 4
        35.800          29.200
  20683635.371    20683634.707    20683631.525   -22508251.917 7 -17538889.654 7
        46.300          44.500
  22694495.101    22694494.829    22694493.221    -9057739.589 4  -7057971.115 4
        29.700          27.100
  22416992.746    22416992.489    22416989.992   -12873908.838 6 -10031608.394 4
        37.500          28.600
  22669548.214    22669548.566    22669547.090    -9025529.468 5  -7032874.033 4
        30.200          25.600
  23484684.814    23484684.273    23484682.545    -5234295.124 4  -4078656.253 3
        25.900          18.600
  24849791.216    24849790.611    24849790.403     2180869.515 2   1699382.883 9
        16.100          -3.000
  20879218.609    20879218.425    20879216.919   -19657664.952 7 -15317653.450 6
        44.900          40.000
  21643581.309    21643580.517    21643579.473   -15439114.961 6 -12030472.858 6
        41.900          36.500
  20427535.319    20427534.576    20427533.424   -22401379.165 7 -17455611.873 7
        46.500          45.900
 07  1  1  0  1 30.0000000  0 10G16G21G29G18G26G10G24G 6G15G 7
  22571739.589    22571739.398    22571737.527    -9026256.553 5  -7033441.728 4
        35.800          28.800
  20676475.661    20676475.152    20676472.028   -22545875.559 7 -17568206.767 7
        46.400          44.700
  22687773.915    22687773.705    22687772.496    -9093059.460 4  -7085493.062 4
        28.800          28.600
  22399937.244    22399936.725    22399934.204   -12963538.054 6 -10101449.319 4
        38.100          28.800
  22655699.061    22655698.916    22655697.277    -9098309.429 5  -7089585.636 4
        30.400          25.300
  23504257.822    23504256.890    23504255.935    -5131440.912 4  -3998510.097 3
        27.400          21.100
  24867318.776    24867317.929    24867318.060     2272977.474 3   1771155.345 9
        19.300          -3.000
  20890157.562    20890157.341    20890155.876   -19600180.334 7 -15272860.238 6
        44.400          40.100
  21629845.554    21629844.891    21629843.909   -15511295.793 7 -12086717.628 6
        42.100          36.800
  20432324.362    20432323.628    20432322.542   -22376211.963 7 -17436001.058 7
        46.600          45.700
 07  1  1  0  2  0.0000000  0 10G16G21G29G18G26G10G24G 6G15G 7
  22568644.172    22568643.699    22568641.442    -9042526.849 6  -7046119.867 4
        36.100          28.800
  20669374.246    20669373.729    20669370.642   -22583193.455 7 -17597285.639 7
        46.200          44.600
  22681158.224    22681157.979    22681156.178    -9127826.187 4  -7112584.012 4
        29.700          27.900
  22382938.489    22382937.701    22382935.226   -13052868.440 6 -10171057.399 4
        38.200          29.200
  22641945.775    22641945.777    22641943.563    -9170584.678 5  -7145903.980 4
        30.800          25.900
  23523870.444    23523870.088    23523869.588    -5028371.503 4  -3918196.257 3
        26.800          19.900
  24884849.198    24884848.491    24884847.865     2365098.470 1   1842937.938 9
        11.000          -3.000
  20901177.108    20901176.868    20901175.323   -19542272.705 7 -15227737.409 6
        44.600          39.800
  21616154.442    21616153.769    21616152.704   -15583243.111 7 -12142780.441 6
        42.200          37.100
  20437203.868    20437203.123    20437201.974   -22350570.167 7 -17416020.432 7
        46.400          45.700
 07  1  1  0  2 30.0000000  0 10G16G21G29G18G26G10G24G 6G15G 7
  22565660.182    22565659.520    22565657.191    -9058209.410 6  -7058340.040 4
        36.500          29.500
  20662331.105    20662330.651    20662327.536   -22620205.114 7 -17626125.883 7
        46.100          44.700
  22674647.977    22674647.831    22674646.060    -9162037.778 5  -7139242.379 4
        30.100          28.100
  22365996.299    22365995.806    22365993.450   -13141898.272 6 -10240431.272 5
        38.400          30.100
  22628288.142    22628288.226    22628286.664    -9242351.617 4  -7201826.223 4
        29.900          24.200
  23543524.693    23543524.120    23543522.455    -4925089.030 4  -3837716.418 2
        24.900          17.000
  24902381.072    24902380.459    24902380.007     2457231.917 2   1914730.260 9
        12.600          -3.000
  20912276.953    20912276.689    20912275.165   -19483942.511 7 -15182285.305 6
        44.300          39.800
  21602507.758    21602507.249    21602506.289   -15654955.786 7 -12198660.416 6
        42.500          36.600
  20442173.808    20442173.045    20442171.808   -22324453.534 7 -17395669.803 7
        46.500          45.600
 07  1  1  0  3  0.0000000  0 10G16G21G29G18G26G10G24G 6G15G 7
  22562787.505    22562786.778    22562784.524    -9073305.682 6  -7070103.353 4
        36.800          29.900
  20655346.413    20655345.722    20655342.538   -22656911.494 7 -17654728.248 7
        46.100          44.900
  22668243.231    22668243.077    22668241.306    -9195694.769 4  -7165468.595 4
        29.900          28.400
  22349111.684    22349111.102    22349108.864   -13230627.622 6 -10309571.004 5
        38.400          30.100
  22614728.580    22614728.430    22614726.737    -9313609.086 5  -7257351.498 4
        30.800          24.600
  23563218.945    23563217.981    23563217.085    -4821598.482 4  -3757074.414 3
        26.200          21.100
  24919914.466    24919914.125    24919914.570     2549375.189 3   1986530.219 9
        18.600          -3.000
  20923456.599    20923456.419    20923454.854   -19425192.802 7 -15136506.308 6
        44.200          39.700
  21588905.749    21588905.154    21588904.141   -15726435.119 7 -12254358.572 6
        42.600          36.800
  20447233.621    20447232.807    20447231.618   -22297864.168 7 -17374950.810 7
        46.500          45.500
 07  1  1  0  3 30.0000000  0 10G16G21G29G18G26G10G24G 6G15G 7
  22560027.072    22560026.406    22560023.722    -9087812.003 6  -7081406.969 4
        36.700          28.800
  20648419.906    20648419.258    20648416.210   -22693309.393 7 -17683090.231 7
        46.000          44.900
  22661944.540    22661944.504    22661942.797    -9228792.112 4  -7191258.718 4
        29.700          26.500
  22332285.295    22332284.799    22332282.216   -13319051.552 6 -10378472.738 4
        38.300          29.500
  22601266.621    22601266.708    22601265.200    -9384350.668 5  -7312474.782 4
        31.500          25.300
  23582952.053    23582950.972    23582949.914    -4717898.994 4  -3676269.628 3
        24.200          19.300
  24937452.427    24937451.500    24937451.820     2641531.154 2   2058340.067 9
        12.600          -3.000
  20934716.702    20934716.485    20934714.753   -19366021.196 7 -15090398.566 6
        44.400          39.500
  21575349.074    21575348.436    21575347.294   -15797676.981 7 -12309871.684 6
        42.700          36.900
  20452383.799    20452383.090    20452381.911   -22270798.919 7 -17353861.004 7
        46.400          45.500
 07  1  1  0  4  0.0000000  0  9G16G21G29G18G26G10G 6G15G 7
  22557378.318    22557377.726    22557375.216    -9101729.747 6  -7092251.947 4
        36.400          28.400
  20641551.892    20641551.393    20641548.497   -22729399.567 7 -17711212.434 7
        45.800          45.100
  22655753.176    22655753.023    22655750.893    -9261329.863 5  -7216612.781 4
        30.400          27.400
  22315517.099    22315516.521    22315513.848   -13407169.798 6 -10447136.287 4
        39.400          29.700
  22587903.908    22587903.812    22587902.308    -9454574.717 5  -7367194.777 4
        31.600          26.500
  23602723.862    23602723.106    23602722.215    -4613994.841 4  -3595305.340 3
        25.300          18.600
  20946056.605    20946056.191    20946054.517   -19306430.154 7 -15043963.986 6
        44.300          39.100
  21561837.018    21561836.355    21561835.306   -15868682.145 7 -12365200.353 6
        42.500          36.900
  20457624.409    20457623.652    20457622.502   -22243259.265 7 -17332401.527 7
        46.400          45.400
 07  1  1  0  4 30.0000000  0  9G16G21G29G18G26G10G 6G15G 7
  22554840.959    22554840.300    22554837.543    -9115064.311 6  -7102642.514 4
        36.500          28.600
  20634741.829    20634741.236    20634738.326   -22765187.431 7 -17739099.066 7
        45.700          45.200
  22649667.436    22649667.203    22649665.067    -9293312.405 5  -7241534.213 4
        30.400          27.600
  22298805.924    22298805.559    22298802.769   -13494986.829 6 -10515565.133 5
        39.700          30.100
  22574638.896    22574638.667    22574636.791    -9524284.092 5  -7421513.736 4
        31.600          24.600
  23622533.361    23622532.897    23622532.254    -4509894.660 4  -3514188.316 3
        25.600          19.300
  20957474.512    20957474.304    20957472.971   -19246426.786 7 -14997208.113 6
        44.200          39.300
  21548369.528    21548368.816    21548367.464   -15939455.805 7 -12420348.643 6
        43.000          36.800
  20462953.970    20462953.280    20462952.278   -22215251.388 7 -17310577.205 7
        46.400          45.300
 07  1  1  0  5  0.0000000  0  9G16G21G29G18G26G10G 6G15G 7
  22552417.837    22552417.099    22552414.696    -9127798.409 6  -7112565.176 4
        36.500          28.600
  20627992.472    20627991.945    20627988.925   -22800655.512 7 -17766736.516 7
        45.600          45.200
  22643689.901    22643689.763    22643688.676    -9324720.843 5  -7266008.290 4
        30.100          28.400
  22282155.888    22282155.373    22282152.887   -13582483.583 6 -10583744.399 5
        39.700          30.200
  22561475.013    22561474.795    22561473.050    -9593458.173 5  -7475415.607 3
        31.500          23.400
  23642383.521    23642382.856    23642382.107    -4405583.599 4  -3432906.982 3
        26.500          19.900
  20968974.568    20968974.315    20968972.764   -19185994.439 7 -14950117.971 6
        44.100          39.300
  21534949.299    21534948.533    21534947.160   -16009979.841 7 -12475302.422 6
        43.000          37.000
  20468376.241    20468375.490    20468374.432   -22186757.985 7 -17288374.547 7
        46.300          45.400
 07  1  1  0  5 30.0000000  0  9G16G21G29G18G26G10G 6G15G 7
  22550105.888    22550105.122    22550102.983    -9139947.557 6  -7122032.034 4
        36.500          29.000
  20621301.180    20621300.487    20621297.428   -22835819.262 7 -17794136.822 7
        45.400          45.300
  22637820.394    22637819.910    22637817.887    -9355569.679 5  -7290046.317 4
        30.600          28.400
  22265564.208    22265563.556    22265560.766   -13669674.403 6 -10651685.286 5
        39.900          30.400
  22548410.688    22548410.800    22548409.272    -9662109.857 5  -7528910.413 4
        30.600          24.600
  23662269.427    23662268.744    23662267.622    -4301080.288 4  -3351475.835 2
        24.600          16.100
  20980552.825    20980552.631    20980550.935   -19125150.176 7 -14902706.860 6
        44.200          39.100
  21521573.688    21521572.758    21521571.479   -16080269.539 7 -12530073.598 6
        42.700          36.900
  20473887.575    20473886.815    20473885.789   -22157795.203 7 -17265806.142 7
        46.100          45.200
 07  1  1  0  6  0.0000000  0  9G16G21G29G18G26G10G 6G15G 7
  22547904.753    22547904.179    22547901.923    -9151511.854 5  -7131043.154 4
        35.700          29.000
  20614667.247    20614666.821    20614663.960   -22870678.481 7 -17821299.834 7
        45.500          45.200
  22632056.893    22632056.379    22632054.258    -9385857.651 5  -7313647.315 4
        31.000          27.900
  22249030.436    22249030.063    22249027.566   -13756557.524 6 -10719386.405 5
        40.100          30.200
  22535446.998    22535446.789    22535445.252    -9730236.487 5  -7581996.076 4
        31.600          26.200
  23682192.296    23682191.270    23682190.600    -4196387.717 4  -3269897.202 2
        24.200          17.000
  20992209.537    20992209.111    20992207.304   -19063895.375 7 -14854975.844 6
        44.300          38.900
  21508242.260    21508241.631    21508240.509   -16150324.344 7 -12584661.750 6
        43.100          37.500
  20479488.375    20479487.622    20479486.462   -22128363.486 7 -17242872.332 7
        46.300          45.100
 07  1  1  0  6 30.0000000  0  9G16G21G29G18G26G10G 6G15G 7
  22545817.877    22545817.321    22545814.879    -9162478.908 6  -7139588.898 4
        36.000          29.000
  20608094.054    20608093.645    20608090.780   -22905220.819 7 -17848215.926 7
        45.300          45.400
  22626402.367    22626402.022    22626400.000    -9415571.393 5  -7336800.863 4
        31.000          28.400
  22232558.134    22232557.717    22232555.125   -13843119.893 6 -10786837.585 5
        39.800          30.600
  22522585.830    22522585.557    22522584.252    -9797822.985 5  -7634660.852 4
        31.500          26.500
  23702152.228    23702151.560    23702150.854    -4091496.479 4  -3188163.782 3
        24.200          18.600
  21003945.807    21003945.605    21003943.962   -19002219.060 7 -14806916.376 6
        44.300          38.900
  21494958.209    21494957.757    21494956.596   -16220131.560 7 -12639056.963 6
        43.100          37.600
  20485180.520    20485179.789    20485178.609   -22098451.092 7 -17219563.969 7
        46.100          45.100
 07  1  1  0  7  0.0000000  0  9G16G21G29G18G26G10G 6G15G 7
  22543843.147    22543842.379    22543840.116    -9172857.245 6  -7147675.905 4
        36.500          29.500
  20601579.836    20601579.342    20601576.344   -22939454.315 7 -17874891.361 7
        45.500          45.600
  22620855.787    22620855.516    22620853.135    -9444718.139 5  -7359512.582 4
        31.100          27.400
  22216145.666    22216145.224    22216142.735   -13929367.907 6 -10854043.800 5
        39.800          31.800
  22509826.276    22509826.069    22509824.194    -9864874.778 5  -7686908.979 4
        31.300          25.900
  23722147.809    23722147.016    23722145.913    -3986417.796 3  -3106284.280 2
        23.800          17.000
  21015760.917    21015760.557    21015758.999   -18940130.844 7 -14758535.941 6
        44.000          39.000
  21481720.022    21481719.502    21481718.239   -16289698.951 7 -12693265.305 6
        43.200          37.500
  20490962.310    20490961.689    20490960.546   -22068066.693 7 -17195887.812 7
        46.300          45.100
 07  1  1  0  7 30.0000000  0  9G16G21G29G18G26G10G 6G15G 7
  22541979.446    22541978.760    22541976.409    -9182651.188 6  -7155307.528 4
        36.600          28.600
  20595123.506    20595122.903    20595119.868   -22973383.104 7 -17901329.358 7
        45.200          45.600
  22615416.144    22615416.003    22615414.083    -9473300.703 5  -7381784.687 4
        31.100          27.900
  22199792.275    22199791.938    22199789.471   -14015304.247 6 -10921007.154 5
        39.500          31.300
  22497168.105    22497168.015    22497166.086    -9931393.111 5  -7738741.441 4
        31.800          25.900
  23742178.988    23742178.108    23742176.043    -3881158.517 4  -3024264.061 3
        25.600          19.300
  21027653.445    21027653.060    21027651.358   -18877635.980 7 -14709838.647 6
        44.000          38.600
  21468527.037    21468526.341    21468525.198   -16359030.044 7 -12747289.523 6
        43.200          37.800
  20496833.511    20496832.701    20496831.467   -22037214.827 7 -17171847.397 7
        46.300          45.000
 07  1  1  0  8  0.0000000  0  9G16G21G29G18G26G10G 6G15G 7
  22540229.664    22540229.121    22540226.578    -9191846.237 6  -7162472.490 4
        36.800          28.400
  20588727.997    20588727.295    20588724.227   -23006992.085 7 -17927518.153 7
        45.100          45.500
  22610087.658    22610087.352    22610085.478    -9501303.382 5  -7403604.938 4
        31.100          28.400
  22183501.760    22183501.202    22183498.633   -14100913.254 6 -10987715.448 5
        39.900          30.800
  22484614.712    22484614.666    22484613.225    -9997360.818 5  -7790144.829 4
        31.300          26.800
  23762244.426    23762243.833    23762243.029    -3775707.099 3  -2942094.114 3
        23.800          18.600
  21039625.650    21039625.354    21039623.622   -18814721.247 7 -14660814.177 6
        43.900          38.500
  21455381.359    21455380.715    21455379.721   -16428109.855 7 -12801117.940 6
        43.100          37.800
  20502795.874    20502795.123    20502793.953   -22005881.391 7 -17147431.728 7
        46.300          44.800
 07  1  1  0  8 30.0000000  0  9G16G21G29G18G26G10G 6G15G 7
  22538590.576    22538589.989    22538587.468    -9200459.072 6  -7169183.779 4
        36.600          28.100
  20582389.831    20582389.283    20582386.315   -23040297.973 7 -17953470.778 7
        45.400          45.600
  22604866.195    22604866.109    22604864.339    -9528741.874 5  -7424985.554 4
        30.800          28.600
  22167270.181    22167269.669    22167267.219   -14186210.061 6 -11054180.463 5
        40.200          31.300
  22472164.016    22472163.889    22472162.127   -10062791.749 5  -7841129.931 4
        32.100          27.900
  23782344.093    23782343.511    23782343.265    -3670083.105 3  -2859789.715 2
        23.000          17.000
  21051674.114    21051673.821    21051672.312   -18751404.879 7 -14611476.746 6
        43.800          38.700
  21442280.852    21442280.120    21442278.982   -16496954.576 7 -12854763.167 6
        43.500          37.900
  20508846.759    20508846.012    20508844.868   -21974083.695 7 -17122654.300 7
        46.400          44.800
 07  1  1  0  9  0.0000000  0  9G16G21G29G18G26G10G 6G15G 7
  22537065.631    22537065.006    22537062.653    -9208473.146 6  -7175428.503 4
        36.500          29.200
  20576113.002    20576112.345    20576109.347   -23073283.898 7 -17979174.080 7
        45.400          45.600
  22599756.005    22599755.734    22599753.672    -9555598.299 5  -7445912.634 4
        31.600          28.800
  22151101.442    22151101.090    22151098.791   -14271176.643 6 -11120388.160 5
        40.000          31.500
  22459818.193    22459818.262    22459816.744   -10127666.447 5  -7891681.630 4
        31.500          27.600
  23802479.689    23802479.245    23802478.467    -3564272.727 4  -2777340.074 2
        24.900          17.800
  21063802.097    21063801.937    21063800.527   -18687671.244 7 -14561814.172 6
        43.600          38.900
  21429228.305    21429227.570    21429226.252   -16565546.856 7 -12908211.687 6
        43.600          38.000
  20514989.314    20514988.471    20514987.269   -21941805.334 7 -17097502.329 7
        46.400          44.800
 07  1  1  0  9 30.0000000  0  9G16G21G29G18G26G10G 6G15G 7
  22535652.621    22535651.885    22535649.881    -9215898.688 6  -7181214.623 5
        36.500          30.100
  20569895.017    20569894.417    20569891.312   -23105959.636 7 -18004635.679 7
        45.400          45.800
  22594754.353    22594754.123    22594751.949    -9581881.549 5  -7466393.069 4
        32.000          28.400
  22134994.519    22134993.854    22134991.265   -14355821.616 6 -11186345.246 5
        40.600          32.000
  22447577.784    22447577.539    22447575.971   -10191992.221 5  -7941805.586 4
        32.100          27.600
  23822647.545    23822646.709    23822646.422    -3458288.689 3  -2694755.105 2
        23.000          17.800
  21076007.812    21076007.444    21076005.887   -18623531.613 7 -14511835.237 6
        43.400          38.400
  21416221.637    21416221.034    21416219.590   -16633896.241 7 -12961470.935 6
        43.900          37.800
  20521220.911    20521220.197    20521219.072   -21909056.813 7 -17071983.998 7
        46.400          44.700
 07  1  1  0 10  0.0000000  0  9G16G21G29G18G26G10G 6G15G 7
  22534352.428    22534352.041    22534349.660    -9222730.408 6  -7186538.024 4
        36.900          28.800
  20563737.065    20563736.545    20563733.442   -23138319.384 7 -18029851.056 7
        45.300          45.800
  22589862.817    22589862.732    22589860.689    -9607585.223 5  -7486421.894 4
        31.600          29.000
  22118949.371    22118948.886    22118946.307   -14440138.462 6 -11252046.648 5
        40.600          32.100
  22435442.981    22435442.628    22435441.309   -10255760.950 5  -7991495.485 4
        31.500          27.600
  23842849.141    23842848.327    23842847.313    -3352128.350 3  -2612032.784 2
        23.400          15.100
  21088291.194    21088290.796    21088289.231   -18558982.121 7 -14461536.924 6
        43.300          38.400
  21403262.618    21403261.915    21403260.674   -16701996.821 7 -13014536.307 6
        43.800          38.200
  20527543.218    20527542.510    20527541.235   -21875833.395 7 -17046095.614 7
        46.500          44.500
 07  1  1  0 10 30.0000000  0  9G16G21G29G18G26G10G 6G15G 7
  22533164.100    22533163.645    22533161.250    -9228975.275 6  -7191404.144 4
        37.100          29.500
  20557638.161    20557637.597    20557634.452   -23170369.719 7 -18054825.329 7
        45.300          45.800
  22585081.179    22585080.821    22585078.802    -9632714.910 5  -7506003.454 4
        31.500          29.200
  22102965.905    22102965.432    22102962.820   -14524131.956 6 -11317496.086 5
        40.800          32.400
  22423413.292    22423413.420    22423411.774   -10318976.516 5  -8040754.342 4
        32.600          27.900
  23863083.086    23863082.386    23863081.119    -3245801.085 3  -2529180.358 2
        23.400          17.800
  21100650.959    21100650.645    21100649.071   -18494030.610 7 -14410925.364 6
        43.300          38.400
  21390349.596    21390348.936    21390347.560   -16769854.616 7 -13067412.493 6
        43.800          38.100
  20533954.651    20533953.865    20533952.458   -21842142.210 7 -17019842.740 7
        46.400          44.600
 07  1  1  0 11  0.0000000  0  9G16G21G29G18G26G10G 6G15G 7
  22532089.066    22532088.506    22532085.983    -9234625.561 6  -7195806.962 4
        37.300          29.500
  20551599.599    20551599.024    20551595.900   -23202102.429 7 -18079552.106 7
        45.500          45.900
  22580409.762    22580409.718    22580407.869    -9657261.539 5  -7525130.682 4
        31.300          29.000
  22087045.366    22087044.992    22087042.602   -14607793.310 6 -11382686.707 5
        40.900          32.700
  22411490.952    22411490.877    22411489.566   -10381628.009 5  -8089573.665 4
        31.800          28.400
  23883349.886    23883348.796    23883347.514    -3139301.646 3  -2446193.791 3
        23.400          18.600
  21113088.445    21113088.243    21113086.705   -18428670.495 7 -14359995.399 6
        43.400          38.300
  21377484.551    21377483.898    21377482.619   -16837461.006 7 -13120092.779 6
        44.000          38.400
  20540456.195    20540455.487    20540454.161   -21807975.681 7 -16993219.468 7
        46.400          44.700
 07  1  1  0 11 30.0000000  0  9G16G21G29G18G26G10G 6G15G 7
  22531126.709    22531126.081    22531124.078    -9239682.717 6  -7199747.595 5
        37.100          30.100
  20545621.227    20545620.681    20545617.658   -23233518.425 7 -18104032.090 7
        45.500          45.900
  22575849.736    22575849.461    22575847.635    -9681225.376 5  -7543803.785 4
        31.500          29.700
  22071188.487    22071188.051    22071185.608   -14691121.898 6 -11447618.039 5
        41.200          32.400
  22399676.512    22399676.266    22399674.415   -10443714.459 5  -8137952.689 4
        31.600          27.600
  23903647.113    23903646.343    23903645.414    -3032634.297 3  -2363076.406 2
        22.100          16.100
  21125603.303    21125602.993    21125601.569   -18362904.355 7 -14308749.058 6
        43.100          38.100
  21364667.016    21364666.386    21364665.193   -16904816.794 7 -13172577.787 6
        44.100          38.400
  20547048.005    20547047.305    20547046.013   -21773335.520 7 -16966227.135 7
        46.400          44.600
 07  1  1  0 12  0.0000000  0  9G16G21G29G18G26G10G 6G15G 7
  22530275.812    22530275.063    22530272.345    -9244156.247 6  -7203233.463 4
        37.200          29.200
  20539701.432    20539700.957    20539697.908   -23264627.069 7 -18128272.583 7
        45.400          46.100
  22571398.501    22571398.198    22571396.593    -9704614.901 4  -7562029.379 4
        29.900          29.500
  22055393.246    22055392.777    22055390.579   -14774125.562 6 -11512296.178 5
        41.000          32.700
  22387967.629    22387967.898    22387965.865   -10505242.324 5  -8185896.468 4
        32.100          26.800
  23923975.780    23923974.447    23923973.068    -2925811.092 3  -2279837.538 2
        23.400          15.100
  21138193.461    21138193.200    21138191.671   -18296743.008 7 -14257194.759 6
        43.000          38.100
  21351895.910    21351895.206    21351893.840   -16971930.832 7 -13224874.415 6
        44.100          38.800
  20553728.110    20553727.311    20553726.024   -21738231.776 7 -16938873.568 7
        46.500          44.500
 07  1  1  0 12 30.0000000  0  9G16G21G29G18G26G10G 6G15G 7
  22529537.480    22529536.833    22529534.434    -9248033.588 6  -7206254.765 4
        37.200          29.200
  20533842.801    20533842.255    20533839.101   -23295415.131 7 -18152263.274 7
        45.400          46.100
  22567059.294    22567059.292    22567057.368    -9727416.147 5  -7579796.566 4
        30.400          28.400
  22039662.932    22039662.453    22039659.836   -14856790.322 6 -11576710.243 5
        41.400          32.600
  22376368.588    22376368.770    22376367.031   -10566196.098 5  -8233392.891 4
        32.400          27.400
  23944334.377    23944333.401    23944332.343    -2818821.725 3  -2196469.213 2
        19.900          12.600
  21150861.006    21150860.768    21150859.123   -18230174.681 7 -14205323.342 6
        43.100          38.100
  21339173.034    21339172.333    21339171.037   -17038789.515 7 -13276972.064 6
        44.100          38.900
  20560498.627    20560497.893    20560496.563   -21702652.152 7 -16911149.184 7
        46.500          44.400
 07  1  1  0 13  0.0000000  0  9G16G21G29G18G26G10G 6G15G 7
  22528913.439    22528912.773    22528910.244    -9251314.373 6  -7208811.208 4
        36.800          29.700
  20528045.137    20528044.577    20528041.542   -23325881.717 7 -18176003.462 7
        45.500          46.100
  22562833.393    22562832.879    22562830.998    -9749627.415 5  -7597104.046 4
        30.200          29.500
  22023997.467    22023996.866    22023993.894   -14939114.331 6 -11640858.778 5
        41.300          32.300
  22364879.679    22364879.424    22364878.111   -10626572.273 5  -8280439.238 4
        31.600          27.600
  23964724.665    23964723.874    23964722.898    -2711668.431 3  -2112973.112 2
        22.100          12.600
  21163605.794    21163605.563    21163603.951   -18163200.240 7 -14153135.465 6
        43.000          37.900
  21326498.921    21326498.249    21326497.057   -17105391.589 7 -13328869.764 6
        44.000          38.500
  20567359.835    20567359.060    20567357.793   -21666596.345 7 -16883053.747 7
        46.600          44.500
 07  1  1  0 13 30.0000000  0  9G16G21G29G18G26G10G 6G15G 7
  22528400.422    22528399.885    22528397.547    -9254008.723 6  -7210910.688 4
        36.400          29.000
  20522307.037    20522306.433    20522303.261   -23356036.304 7 -18199500.532 7
        45.400          46.200
  22558716.545    22558716.578    22558714.969    -9771257.632 5  -7613958.744 4
        30.800          29.200
  22008394.898    22008394.399    22008391.400   -15021105.647 6 -11704748.078 5
        41.500          32.000
  22353498.845    22353498.755    22353497.377   -10686378.151 5  -8327041.195 4
        32.100          27.100
  23985143.581    23985143.691    23985142.886    -2604363.354 3  -2029358.773 2
        21.600          12.600
  21176425.842    21176425.528    21176423.981   -18095830.752 7 -14100639.765 6
        42.900          37.800
  21313872.083    21313871.350    21313870.300   -17171746.257 7 -13380574.674 6
        44.000          38.900
  20574309.618    20574308.785    20574307.682   -21630074.721 7 -16854595.333 7
        46.400          44.400
 07  1  1  0 14  0.0000000  0 10G16G21G29G22G18G26G10G 6G15G 7
  22527998.080    22527997.680    22527995.921    -9256120.588 6  -7212556.287 4
        36.400          29.700
  20516627.380    20516626.809    20516623.650   -23385882.707 7 -18222757.464 7
        45.400          46.200
  22554710.946    22554710.567    22554708.748    -9792309.732 5  -7630362.956 4
        31.300          29.700
  24573252.131    24573251.717    24573248.052     -191129.052 3   -148931.786 1
        21.600           9.000
  21992855.123    21992854.700    21992851.733   -15102766.686 6 -11768380.018 5
        41.800          32.400
  22342226.836    22342226.836    22342224.768   -10745615.039 5  -8373199.794 4
        32.800          27.600
  24005591.117    24005590.469    24005589.713    -2496913.382 2  -1945631.538 2
        16.100          15.100
  21189320.080    21189319.739    21189318.071   -18028071.433 7 -14047840.298 6
        42.900          37.800
  21301291.621    21301290.866    21301289.884   -17237856.760 7 -13432089.318 6
        44.100          39.100
  20581347.133    20581346.429    20581345.260   -21593091.602 7 -16825777.313 7
        46.400          44.100
 07  1  1  0 14 30.0000000  0 10G16G21G29G22G18G26G10G 6G15G 7
  22527710.580    22527710.095    22527707.865    -9257632.815 6  -7213734.642 4
        36.800          28.800
  20511009.861    20511009.316    20511006.124   -23415402.860 7 -18245760.173 7
        45.300          46.300
  22550818.363    22550817.984    22550816.385    -9812765.028 5  -7646302.137 4
        31.000          29.900
  24552294.450    24552293.858    24552291.131     -301258.872 3   -234747.156 1
        19.300          11.000
  21977381.930    21977381.389    21977378.534   -15184078.519 6 -11831739.851 5
        41.400          32.800
  22331066.644    22331066.355    22331064.306   -10804262.462 5  -8418899.070 4
        33.000          27.100
  24026069.566    24026068.514    24026067.231    -2389303.402 3  -1861779.613 2
        20.500          12.600
  21202291.449    21202291.303    21202289.610   -17959905.771 7 -13994724.201 6
        42.800          37.600
  21288761.196    21288760.448    21288759.398   -17303704.697 7 -13483399.373 6
        44.000          39.000
  20588476.051    20588475.252    20588473.960   -21555629.923 7 -16796586.397 7
        46.300          44.400
 07  1  1  0 15  0.0000000  0 10G16G21G29G22G18G26G10G 6G15G 7
  22527534.158    22527533.561    22527530.751    -9258561.286 6  -7214458.132 4
        36.500          28.800
  20505451.619    20505451.056    20505447.826   -23444612.111 7 -18268520.622 7
        45.400          46.500
  22547036.168    22547036.019    22547034.471    -9832638.533 5  -7661787.969 5
        30.600          30.200
  24531353.593    24531353.724    24531351.840     -411298.652 3   -320492.360 9
        19.300          -3.000
  21961972.700    21961972.001    21961969.232   -15265055.776 6 -11894838.974 5
        41.800          33.000
  22320015.604    22320015.652    22320013.998   -10862333.736 5  -8464149.395 4
        32.400          28.100
  24046573.697    24046572.887    24046571.634    -2281552.170 3  -1777817.597 1
        20.500           6.500
  21215337.139    21215336.826    21215335.112   -17891351.206 7 -13941305.063 6
        42.800          37.500
  21276277.653    21276276.997    21276275.868   -17369305.364 7 -13534516.749 6
        44.000          39.000
  20595692.417    20595691.739    20595690.620   -21517706.226 7 -16767035.461 7
        46.200          44.300
 07  1  1  0 15 30.0000000  0 10G16G21G29G22G18G26G10G 6G15G 7
  22527471.356    22527470.869    22527468.223    -9258890.087 6  -7214714.335 4
        36.500          27.400
  20499955.787    20499955.213    20499951.940   -23473493.270 7 -18291025.412 7
        45.500          46.500
  22543368.688    22543368.366    22543366.729    -9851912.594 5  -7676806.701 4
        31.000          29.700
  24510436.077    24510435.237                     -521229.715 3
        21.100
  21946630.030    21946629.515    21946627.021   -15345680.145 6 -11957663.127 5
        41.500          33.200
  22309077.738    22309077.964    22309076.821   -10919809.431 5  -8508935.620 4
        32.000          28.100
  24067107.528    24067106.723    24067105.827    -2173645.092 3  -1693734.154 2
        21.100          16.100
  21228459.441    21228459.167    21228457.505   -17822392.292 7 -13887570.851 6
        42.700          37.200
  21263844.746    21263843.957    21263842.778   -17434641.408 7 -13585427.924 6
        44.100          38.800
  20603000.079    20602999.401    20602998.263   -21479304.274 7 -16737111.859 7
        46.200          44.200
 07  1  1  0 16  0.0000000  0 10G16G21G29G22G18G26G10G 6G15G 7
  22527521.019    22527520.233    22527518.250    -9258629.679 6  -7214511.413 4
        36.300          28.800
  20494520.078    20494519.624    20494516.503   -23502056.621 7 -18313282.567 7
        45.500          46.600
  22539813.047    22539812.860    22539811.242    -9870596.614 5  -7691365.660 4
        31.000          29.500
  24489535.820    24489535.455    24489533.403     -631060.696 3   -491735.513 1
        23.400           9.000
  21931353.007    21931352.616    21931350.075   -15425960.473 6 -12020219.189 5
        41.900          33.500
  22298253.514    22298253.161    22298251.055   -10976697.326 5  -8553263.826 4
        33.000          27.600
  24087668.505    24087667.518    24087666.765    -2065595.410 3  -1609539.606 2
        19.900          13.900
  21241656.678    21241656.421    21241654.688   -17753040.566 7 -13833530.544 6
        42.900          37.100
  21251460.159    21251459.435    21251458.295   -17499722.403 7 -13636140.361 6
        44.400          39.100
  20610396.724    20610396.089    20610394.929   -21440434.872 7 -16706824.016 7
        46.300          44.200
 07  1  1  0 16 30.0000000  0 10G16G21G29G22G18G26G10G 6G15G 7
  22527682.768    22527682.217    22527680.070    -9257779.008 5  -7213848.555 4
        35.500          29.200
  20489145.764    20489145.060    20489141.860   -23530300.454 7 -18335290.743 7
        45.300          46.500
  22536370.345    22536370.277    22536368.720    -9888688.346 5  -7705463.088 4
        30.200          29.900
  24468655.327    24468654.746    24468651.188     -740788.647 2   -577237.800 1
        17.000           9.000
  21916142.446    21916141.919    21916139.268   -15505894.120 6 -12082505.117 5
        41.900          33.800
  22287540.532    22287540.283    22287538.410   -11032993.436 5  -8597130.912 4
        33.100          28.100
  24108257.078    24108255.933    24108255.321    -1957404.212 3  -1525234.772 2
        20.500          15.100
  21254928.419    21254928.263    21254926.462   -17683296.224 7 -13779184.306 6
        42.700          37.100
  21239124.814    21239124.031    21239122.633   -17564546.273 7 -13686652.446 6
        44.500          39.300
  20617882.616    20617881.818    20617880.660   -21401097.275 7 -16676171.340 7
        46.100          44.100
 07  1  1  0 17  0.0000000  0 10G16G21G29G22G18G26G10G 6G15G 7
  22527958.368    22527957.597    22527955.139    -9256332.172 6  -7212721.144 4
        36.100          28.100
  20483832.878    20483832.501    20483829.334   -23558218.058 7 -18357044.714 7
        45.200          46.600
  22533041.689    22533041.558    22533039.973    -9906180.759 5  -7719093.514 5
        30.800          30.100
  24447795.315    24447794.691    24447791.624     -850405.650 3   -662653.569 3
        19.900          18.600
  21900999.062    21900998.552    21900995.870   -15585473.349 7 -12144514.882 5
        42.500          34.100
  22276941.257    22276941.335    22276939.681   -11088689.135 5  -8640530.130 4
        33.200          28.600
  24128872.670    24128871.719    24128870.916    -1849067.960 3  -1440816.905 2
        21.100          15.100
  21268276.247    21268275.902    21268274.335   -17613154.269 7 -13724528.240 6
        42.500          37.000
  21226839.240    21226838.622    21226837.277   -17629106.234 7 -13736958.893 6
        44.800          39.300
  20625458.256    20625457.551    20625456.524   -21361285.869 7 -16645149.467 7
        46.100          44.000
 07  1  1  0 17 30.0000000  0 10G16G21G29G22G18G26G10G 6G15G 7
  22528344.472    22528343.803    22528341.242    -9254302.787 6  -7211139.805 4
        36.500          28.600
  20478580.246    20478579.714    20478576.385   -23585822.411 7 -18378554.595 7
        45.400          46.800
  22529825.145    22529824.780    22529822.764    -9923086.054 5  -7732266.442 4
        31.600          29.500
  24426954.704    24426954.498    24426950.863     -959922.947 3   -747991.647 3
        22.600          19.300
  21885920.806    21885920.353    21885917.596   -15664709.820 7 -12206257.557 5
        42.800          34.000
  22266455.420    22266455.375    22266453.586   -11143794.805 5  -8683469.589 4
        33.200          29.000
  24149512.983    24149511.684    24149511.189    -1740602.192 3  -1356298.133 2
        19.900          12.600
  21281696.567    21281696.423    21281694.914   -17542629.092 7 -13669573.560 6
        42.400          37.300
  21214601.727    21214601.052    21214599.935   -17693414.522 7 -13787069.228 6
        44.900          39.700
  20633121.891    20633121.074    20633119.928   -21321014.224 7 -16613768.963 7
        45.900          44.000
 07  1  1  0 18  0.0000000  0 10G16G21G29G22G18G26G10G 6G15G 7
  22528842.691    22528842.126    22528840.135    -9251682.319 5  -7209097.872 4
        35.900          28.400
  20473388.509    20473388.034    20473384.750   -23613104.367 7 -18399813.259 7
        45.300          46.600
  22526721.881    22526721.521    22526719.564    -9939394.577 5  -7744974.354 4
        31.800          29.700
  24406135.694    24406135.446    24406131.483    -1069330.038 3   -833243.851 2
        22.100          17.000
  21870909.631    21870909.162    21870906.545   -15743593.396 7 -12267725.259 5
        42.600          34.100
  22256083.508    22256083.566    22256081.817   -11198299.055 5  -8725940.410 4
        33.000          28.100
  24170179.434    24170178.601    24170177.044    -1632000.223 3  -1271673.220 1
        19.900          11.000
  21295191.338    21295191.218    21295189.548   -17471713.260 7 -13614314.474 6
        42.300          36.800
  21202413.897    21202413.253    21202412.064   -17757461.641 7 -13836976.056 6
        44.900          39.500
  20640874.260    20640873.574    20640872.476   -21280274.151 7 -16582023.451 7
        45.900          44.000
 07  1  1  0 18 30.0000000  0 10G16G21G29G22G18G26G10G 6G15G 7
  22529453.229    22529452.738    22529450.228    -9248475.443 6  -7206599.010 4
        36.600          28.600
  20468257.646    20468257.036    20468253.814   -23640067.619 7 -18420823.578 7
        45.100          46.700
  22523731.419    22523731.010    22523728.684    -9955109.852 5  -7757219.996 4
        32.100          29.900
  24385335.880    24385335.601    24385332.498    -1178629.155 3   -918411.936 2
        22.600          17.000
  21855965.110    21855964.663    21855962.119   -15822126.756 7 -12328920.057 5
        42.500          34.500
  22245826.183    22245825.973    22245824.259   -11252203.481 5  -8767943.833 4
        33.500          29.700
  24190870.195    24190869.301    24190867.955    -1523269.001 3  -1186947.560 9
        20.500          -3.000
  21308759.507    21308759.341    21308757.749   -17400412.330 7 -13558755.310 6
        42.200          36.800
  21190275.225    21190274.671    21190273.285   -17821250.931 7 -13886681.979 6
        45.200          39.700
  20648715.103    20648714.380    20648713.301   -21239070.324 7 -16549916.575 7
        46.200          43.900
 07  1  1  0 19  0.0000000  0 10G16G21G29G22G18G26G10G 6G15G 7
  22530175.833    22530175.512    22530173.031    -9244676.940 6  -7203639.130 4
        36.300          28.600
  20463188.442    20463187.935    20463184.744   -23666705.817 7 -18441580.606 7
        45.100          46.800
  22520854.426    22520854.065    22520852.196    -9970225.238 5  -7768998.200 4
        31.500          29.700
  24364558.538    24364558.036    24364555.508    -1287812.926 3  -1003490.097 2
        19.900          13.900
  21841088.621    21841088.200    21841085.668   -15900302.896 7 -12389836.513 5
        42.700          34.600
  22235683.936    22235683.822    22235682.158   -11305499.899 5  -8809473.491 4
        33.600          29.700
  24211586.197    24211584.653    24211584.240    -1414405.398 2  -1102118.785 9
        17.000          -3.000
  21322401.640    21322401.387    21322399.924   -17328721.880 6 -13502892.631 6
        41.700          36.800
  21178186.842    21178186.192    21178184.851   -17884776.172 7 -13936182.151 6
        45.100          40.000
  20656645.232    20656644.474    20656643.320   -21197397.665 7 -16517444.369 7
        46.000          43.800
 07  1  1  0 19 30.0000000  0 10G16G21G29G22G18G26G10G 6G15G 7
  22531010.745    22531010.324    22531008.019    -9240288.934 5  -7200219.910 4
        35.800          28.400
  20458181.260    20458180.565    20458177.126   -23693020.668 7 -18462085.677 7
        45.100          46.800
  22518092.256    22518091.857    22518089.876    -9984741.748 5  -7780309.766 4
        31.500          29.500
  24343803.542    24343803.159    24343800.851    -1396881.482 3  -1088478.518
        18.600           3.000
  21826280.364    21826279.775    21826277.191   -15978122.101 7 -12450474.830 5
        42.500          35.100
  22225657.531    22225657.735    22225656.401   -11358187.661 5  -8850528.868 5
        33.600          30.100
  24232326.315    24232325.677    24232324.816    -1305413.636 3  -1017190.119 2
        19.300          12.600
  21336117.394    21336117.257    21336115.494   -17256645.084 6 -13446728.894 6
        41.600          36.000
  21166148.221    21166147.659    21166146.468   -17948038.319 7 -13985477.306 6
        45.100          40.100
  20664663.890    20664663.250    20664662.076   -21155258.550 7 -16484608.695 7
        46.000          43.600
 07  1  1  0 20  0.0000000  0 10G16G21G29G22G18G26G10G 6G15G 7
  22531957.424    22531956.965    22531954.318    -9235314.939 6  -7196344.060 4
        36.300          27.600
  20453234.496    20453233.872    20453230.699   -23719014.534 7 -18482340.630 7
        44.900          46.800
  22515443.447    22515443.139    22515441.125    -9998661.353 5  -7791156.192 5
        32.000          30.200
  24323070.205    24323069.868    24323067.325    -1505835.913 3  -1173378.001 1
        19.900          11.000
  21811539.656    21811539.061    21811536.224   -16055585.618 7 -12510835.996 5
        43.100          34.400
  22215747.427    22215747.273    22215745.757   -11410266.875 5  -8891110.042 5
        33.000          30.600
  24253090.029    24253089.365    24253088.575    -1196299.071 3   -932165.781
        18.600           3.000
  21349905.895    21349905.665    21349904.101   -17184186.040 6 -13390267.310 6
        41.300          36.400
  21154159.466    21154158.905    21154157.782   -18011039.303 7 -14034568.964 6
        45.300          40.100
  20672770.987    20672770.268    20672769.079   -21112656.390 7 -16451412.205 7
        46.200          43.600
 07  1  1  0 20 30.0000000  0 10G16G21G29G22G18G26G10G 6G15G 7
  22533016.072    22533015.297    22533012.880    -9229753.587 5  -7192010.552 4
        35.800          28.100
  20448349.352    20448348.774    20448345.654   -23744685.590 7 -18502344.041 7
        44.800          46.900
  22512908.363    22512908.158    22512906.155   -10011981.836 5  -7801535.774 4
        31.800          29.000
  24302357.510    24302357.965    24302355.983    -1614673.009 3  -1258186.049 2
        19.300          15.100
  21796866.748    21796866.238    21796863.532   -16132690.907 7 -12570918.021 5
        42.500          34.800
  22205953.616    22205953.521    22205951.631   -11461733.736 5  -8931214.070 4
        33.200          29.500
  24273876.872    24273876.131    24273875.126    -1087062.454 3   -847046.355 9
        19.300          -3.000
  21363767.401    21363767.071    21363765.546   -17111344.527 6 -13333507.697 6
        41.600          36.600
  21142221.001    21142220.344    21142219.080   -18073776.889 7 -14083455.379 6
        45.200          40.100
  20680966.277    20680965.458    20680964.261   -21069590.228 7 -16417854.158 7
        46.000          43.600
 07  1  1  0 21  0.0000000  0 10G16G21G29G22G18G26G10G 6G15G 7
  22534185.144    22534184.685    22534182.335    -9223607.757 5  -7187221.601 4
        35.700          27.900
  20443525.425    20443524.831    20443521.666   -23770035.606 7 -18522097.291 7
        44.700          46.900
  22510487.405    22510487.162    22510485.141   -10024704.800 5  -7811449.756 4
        32.000          29.500
  24281669.661    24281669.625    24281666.899    -1723393.217 3  -1342903.045 2
        21.100          12.600
  21782262.268    21782261.618    21782258.728   -16209438.848 7 -12630721.596 5
        42.700          34.700
  22196275.825    22196275.962    22196274.420   -11512587.943 5  -8970840.698 4
        33.600          29.700
  24294686.421    24294685.991    24294685.123     -977708.591 3   -761835.526 2
        18.600          12.600
  21377700.761    21377700.434    21377698.955   -17038124.315 6 -13276452.988 6
        41.700          36.500
  21130332.313    21130331.669    21130330.415   -18136252.540 7 -14132137.679 6
        45.000          40.300
  20689249.174    20689248.435    20689247.210   -21026063.063 7 -16383936.885 7
        46.000          43.400
 07  1  1  0 21 30.0000000  0 10G16G21G29G22G18G26G10G 6G15G 7
  22535467.325    22535466.663    22535464.241    -9216870.869 5  -7181972.079 4
        35.400          28.600
  20438764.013    20438763.494    20438760.318   -23795056.569 7 -18541594.138 7
        44.700          47.000
  22508181.586    22508181.209    22508179.449   -10036822.155 5  -7820891.837 5
        31.600          30.100
  24261005.783    24261005.576    24261002.073    -1831986.846 3  -1427521.384 2
        23.000          17.000
  21767727.182    21767726.672    21767723.791   -16285820.332 7 -12690239.621 5
        42.900          35.200
  22186717.474    22186717.567    22186715.713   -11562819.698 5  -9009982.315 4
        34.500          29.900
  24315518.712    24315518.101    24315517.113     -868232.351 3   -676529.365 2
        19.300          12.600
  21391707.213    21391706.980    21391705.577   -16964519.319 6 -13219098.456 6
        41.900          36.600
  21118494.999    21118494.392    21118493.214   -18198458.160 7 -14180609.568 6
        45.300          40.700
  20697621.150    20697620.454    20697619.174   -20982068.004 7 -16349655.020 7
        46.300          43.400
 07  1  1  0 22  0.0000000  0 10G16G21G29G22G18G26G10G 6G15G 7
  22536860.378    22536859.614    22536857.194    -9209552.293 5  -7176269.293 4
        35.900          29.200
  20434063.593    20434063.050    20434060.003   -23819756.967 7 -18560841.190 7
        44.600          46.900
  22505989.122    22505988.760    22505987.120   -10048342.321 5  -7829868.572 4
        31.500          29.700
  24240363.278    24240362.966    24240360.273    -1940461.614 3  -1512047.090 3
        19.300          21.100
  21753260.799    21753260.113    21753257.259   -16361842.640 7 -12749477.762 5
        42.900          35.200
  22177276.170    22177275.796    22177274.380   -11612435.647 5  -9048644.075 5
        33.500          30.600
  24336373.015    24336371.710    24336371.319     -758645.239 3   -591136.802 2
        18.600          12.600
  21405784.892    21405784.843    21405783.326   -16890539.984 6 -13161452.221 6
        41.800          36.500
  21106707.391    21106706.741    21106705.693   -18260402.006 7 -14228877.475 6
        45.200          40.600
  20706080.282    20706079.471    20706078.293   -20937614.927 7 -16315016.255 7
        46.200          43.400
 07  1  1  0 22 30.0000000  0 10G16G21G29G22G18G26G10G 6G15G 7
  22538365.403    22538364.707    22538362.077    -9201642.719 6  -7170106.002 4
        36.400          28.100
  20429426.290    20429425.633    20429422.521   -23844127.255 7 -18579831.015 7
        44.500          46.900
  22503912.725    22503912.440    22503910.513   -10059254.913 5  -7838371.878 4
        31.300          29.500
  24219745.558    24219745.538    24219742.614    -2048806.373 3  -1596471.511 2
        22.100          17.800
  21738864.388    21738863.901    21738860.998   -16437495.433 7 -12808427.977 5
        43.200          35.200
  22167953.541    22167953.404    22167952.062   -11661423.742 5  -9086816.597 5
        33.400          30.600
  24357248.939    24357247.942    24357247.508     -648940.239 2   -505652.395 9
        16.100          -3.000
  21419935.782    21419935.629    21419933.977   -16816177.995 7 -13103507.817 6
        42.100          36.500
  21094971.758    21094971.075    21094969.707   -18322073.625 7 -14276933.260 6
        45.000          40.300
  20714628.257    20714627.512    20714626.298   -20892694.679 7 -16280013.463 7
        46.200          43.300
 07  1  1  0 23  0.0000000  0 10G16G21G29G22G18G26G10G 6G15G 7
  22539982.973    22539982.179    22539980.607    -9193141.769 6  -7163481.895 4
        36.000          29.900
  20424851.925    20424851.345    20424848.144   -23868165.553 7 -18598562.146 7
        44.700          47.000
  22501952.055    22501951.701    22501949.830   -10069557.898 5  -7846400.171 4
        32.100          29.500
  24199153.644    24199153.557    24199150.401    -2157017.579 3  -1680791.861 2
        23.400          15.100
  21724538.996    21724538.460    21724535.717   -16512775.585 7 -12867087.815 5
        43.100          35.500
  22158751.422    22158751.307    22158749.683   -11709780.346 5  -9124497.049 5
        32.800          30.100
  24378147.526    24378146.736    24378145.758     -539118.182 2   -420076.775 1
        15.100          11.000
  21434159.325    21434158.934    21434157.376   -16741433.572 6 -13045265.418 6
        41.400          36.200
  21083288.093    21083287.482    21083286.219   -18383470.862 7 -14324775.241 6
        45.200          40.200
  20723265.439    20723264.700    20723263.448   -20847306.618 7 -16244646.139 7
        46.200          43.200
 07  1  1  0 23 30.0000000  0 10G16G21G29G22G18G26G10G 6G15G 7
  22541711.249    22541710.557    22541708.271    -9184060.963 6  -7156405.966 4
        36.500          29.500
  20420338.610    20420338.007    20420334.952   -23891882.467 7 -18617042.848 7
        44.500          47.000
  22500105.523    22500105.175    22500103.245   -10079261.796 5  -7853961.634 4
        32.300          29.500
  24178586.248    24178586.146    24178582.076    -2265104.761 4  -1765015.621 1
        24.900          11.000
  21710282.558    21710282.118    21710279.383   -16587692.921 7 -12925464.935 5
        43.100          35.500
  22149668.602    22149668.331    22149666.357   -11757513.868 5  -9161691.982 5
        33.200          30.200
  24399065.057    24399064.454    24399064.098     -429192.235 3   -334420.184 1
        19.300           6.500
  21448452.914    21448452.685    21448451.185   -16666318.929 6 -12986734.525 6
        41.500          36.500
  21071654.877    21071654.123    21071652.890   -18444603.963 7 -14372411.399 6
        45.100          40.300
  20731989.306    20731988.606    20731987.346   -20801462.363 7 -16208923.344 7
        46.300          43.200
 07  1  1  0 24  0.0000000  0 11G16G21G29G22G18G26G10G 3G 6G15G 7
  22543548.785    22543548.140    22543546.553    -9174401.809 6  -7148879.361 4
        36.100          29.000
  20415886.530    20415885.962    20415882.864   -23915278.273 7 -18635273.334 7
        44.300          47.100
  22498372.712    22498372.406    22498370.377   -10088366.744 5  -7861056.380 4
        31.800          29.700
  24158041.694    24158041.356    24158037.806    -2373066.804 4  -1849141.886 2
        26.200          17.000
  21696095.560    21696095.025    21696092.233   -16662247.001 7 -12983558.999 5
        43.500          35.700
  22140703.790    22140703.753    22140701.955   -11804623.058 5  -9198400.414 4
        33.800          29.900
  24420003.255    24420002.015    24420001.492     -319165.947 2   -248685.428 9
        13.900          -3.000
  24286120.306    24286120.370    24286119.780     -139646.084 3   -108815.224
        19.900           3.000
  21462816.736    21462816.511    21462815.205   -16590836.376 6 -12927916.961 5
        40.900          35.900
  21060071.590    21060071.031    21060069.723   -18505473.114 7 -14419841.880 6
        45.200          40.300
  20740799.726    20740798.991    20740797.733   -20755163.600 7 -16172846.384 7
        46.200          43.200
 07  1  1  0 24 30.0000000  0 11G16G21G29G22G18G26G10G 3G 6G15G 7
  22545497.345    22545496.777    22545495.018    -9164161.750 6  -7140900.106 4
        36.000          29.500
  20411496.266    20411495.583    20411492.451   -23938349.743 7 -18653251.092 7
        44.400          47.000
  22496754.690    22496754.481    22496752.521   -10096869.213 5  -7867681.677 4
        32.000          29.500
  24137521.352    24137520.645    24137518.118    -2480898.980 3  -1933166.956 2
        23.400          16.100
  21681978.416    21681977.898    21681975.089   -16736433.227 7 -13041366.425 5
        43.800          35.700
  22131858.520    22131858.606    22131857.179   -11851102.402 5  -9234618.054 5
        33.200          30.200
  24440960.252    24440959.088    24440958.304     -209038.337 2   -162871.691 1
        17.000           6.500
  24266221.441    24266221.334    24266220.186     -244216.316 3   -190298.528 9
        19.900          -3.000
  21477251.360    21477250.644    21477249.275   -16514984.235 6 -12868811.397 6
        40.600          36.200
