     2.11           OBSERVATION DATA    G (GPS)             RINEX VERSION / TYPE
teqc  2009Oct19     WCDA Operator       20110102 00:08:50UTCPGM / RUN BY / DATE
Solaris x86 5.10|AMD64|cc SC5.8 -xarch=amd64|=+|=+          COMMENT
teqc  2009Oct19     WCDA Operator       20110102 00:08:46UTCCOMMENT
teqc  2009Oct19     WCDA Operator       20110101 01:07:05UTCCOMMENT
teqc  2009Oct19     WCDA Operator       20110101 01:07:04UTCCOMMENT
CONTACT gps@pgc.nrcan.gc.ca FOR ADDITIONAL INFORMATION      COMMENT
    P1 =    P1  TurboRogue; =    Y1  Benchmark              COMMENT
    L1 = L1(CA)                                             COMMENT
    P2 =    P2  TurboRogue; =    Y2  Benchmark              COMMENT
    L2 = L2(P2) TurboRogue; = L2(Y2) Benchmark              COMMENT
 SNR is mapped to RINEX snr flag value [0-9]                COMMENT
  L1 & L2: min(max(int(snr_dBHz/6), 0), 9)                  COMMENT
teqc windowed: start @ 2011 Jan  1 00:00:00.000             COMMENT
teqc windowed:  end  @ 2011 Jan  1 23:59:59.000             COMMENT
teqc windowed: start @ 2011 Jan  1 00:00:00.000             COMMENT
teqc windowed:  end  @ 2011 Jan  1 00:59:59.000             COMMENT
albh  WCDA-ACP   927000   Victoria BC Canada                MARKER NAME
40129M003                                                   MARKER NUMBER
PGC-WCDA            GEOL. SURV. CANADA                      OBSERVER / AGENCY
1113                AOA BENCHMARK ACT   3.3.32.2N lk 99/07/2REC # / TYPE / VERS
99442               AOAD/M_T        SCIS                    ANT # / TYPE
 -2341332.8840 -3539049.5090  4745791.3600                  APPROX POSITION XYZ
        0.1000        0.0000        0.0000                  ANTENNA: DELTA H/E/N
     1     1                                                WAVELENGTH FACT L1/2
     7    C1    P1    P2    L1    L2    S1    S2            # / TYPES OF OBSERV
teqc windowed: start @ 2011 Jan  1 00:00:00.000             COMMENT
teqc windowed:  end  @ 2011 Jan  1 23:59:59.000             COMMENT
  2011     1     1     0     0    0.0000000     GPS         TIME OF FIRST OBS
                                                            END OF HEADER
 11  1  1  0  0  0.0000000  0 10G14G09G06G11G27G19G24G18G22G03
  20825464.284    20825463.795    20825461.702   109438613.644 7  85276856.248 7
        45.000          43.000
  22900774.148    22900774.017    22900772.178   120344414.387 5  93774875.079 3
        31.000          23.000
  23076902.537    23076902.484    23076901.929   121269959.911 5  94496083.875 3
        31.000          23.000
  24335070.823    24335070.856    24335068.727   127881667.283 1  99648054.894
         6.500
  24564800.303    24564800.207    24564799.906   129088907.262 3 100588760.543 2
        22.100          12.600
  21929635.491    21929634.182    21929631.197   115241036.136 7  89798221.911 6
        44.000          37.000
  24346606.882    24346606.139    24346606.490   127942271.016 4  99695273.620
        27.100
  22251903.991    22251903.607    22251900.848   116934603.107 6  91117887.538 5
        38.000          30.100
  20504912.252    20504911.119    20504907.188   107754131.622 8  83964283.109 7
        49.000          47.000
  22845170.720    22845170.119    22845169.582   120052176.756 5  93547149.222 4
        31.000          24.900
 11  1  1  0  0 30.0000000  0 10G14G09G06G11G27G19G24G18G22G03
  20816210.018    20816209.504    20816207.332   109389982.093 7  85238961.543 7
        45.000          43.000
  22902019.964    22902019.977    22902019.150   120350964.022 5  93779978.713 4
        30.100          24.900
  23093888.671    23093888.470    23093887.418   121359220.493 5  94565637.570 3
        31.000          23.000
  24315521.819    24315521.589    24315520.714   127778939.690 2  99568007.509
        15.100           3.000
  24574024.172    24574023.426    24574022.913   129137375.053 3 100626527.660 2
        23.800          16.100
  21933516.654    21933515.467    21933512.557   115261433.581 7  89814116.013 6
        44.000          37.000
  24327401.340    24327401.203    24327401.476   127841351.844 3  99616635.301
        22.100
  22265261.624    22265261.086    22265258.248   117004796.165 6  91172583.427 5
        38.000          30.100
  20509994.142    20509993.135    20509989.245   107780838.224 8  83985093.455 7
        49.000          46.000
  22862074.171    22862073.459    22862072.277   120141002.427 5  93616364.021 3
        32.000          23.000
 11  1  1  0  1  0.0000000  0 10G14G09G06G11G27G19G24G18G22G03
  20807051.999    20807051.568    20807049.426   109341857.091 7  85201461.553 7
        45.000          43.000
  22903396.435    22903396.064    22903394.983   120358195.168 5  93785613.401 3
        30.100          23.000
  23110918.803    23110918.537    23110917.958   121448715.779 5  94635374.149 3
        30.100          23.000
  24296006.521    24296007.195    24296005.515   127676386.542 2  99488096.042
        12.600
  24583333.261    24583332.801    24583330.846   129186291.698 3 100664644.554 2
        21.100          16.100
  21937507.942    21937506.684    21937503.813   115282408.802 7  89830460.334 6
        44.000          37.000
  24308211.878    24308211.331    24308212.011   127740510.187 3  99538057.488
        19.300
  22278654.264    22278653.644    22278650.995   117075175.864 6  91227424.750 5
        38.000          30.100
  20515136.979    20515136.023    20515132.249   107807864.598 8  84006152.977 7
        49.000          46.000
  22879032.116    22879031.446    22879030.110   120230116.840 5  93685803.814 3
        32.000          23.800
 11  1  1  0  1 30.0000000  0 10G14G09G06G11G27G19G24G18G22G03
  20797990.763    20797990.276    20797988.018   109294239.476 7  85164356.930 7
        45.000          43.000
  22904902.322    22904901.754    22904900.789   120366107.576 5  93791778.917 3
        30.100          23.000
  23127993.258    23127992.928    23127992.688   121538442.836 4  94705291.310 3
        29.000          23.000
  24276525.534    24276525.501    24276524.132   127574010.080 2  99408322.246
        15.100
  24592726.813    24592726.226    24592724.641   129235655.504 3 100703109.881 2
        22.100          15.100
  21941609.262    21941607.959    21941604.826   115303960.495 7  89847253.857 6
        44.000          37.000
  24289037.261    24289036.698    24289037.748   127639747.456 2  99459541.215 1
        17.000          11.000
  22292082.184    22292081.812    22292079.042   117145741.515 6  91282410.970 4
        38.000          29.000
  20520340.987    20520339.872    20520335.909   107835209.856 8  84027460.979 7
        49.000          46.000
  22896044.221    22896043.716    22896042.346   120319516.789 5  93755466.108 3
        33.000          23.000
 11  1  1  0  2  0.0000000  0 10G14G09G06G11G27G19G24G18G22G03
  20789025.897    20789025.481    20789023.204   109247129.174 7  85127647.623 7
        45.000          43.000
  22906537.556    22906537.105    22906535.805   120374700.534 5  93798474.747 4
        31.000          24.900
  23145110.877    23145110.828    23145110.754   121628397.769 5  94775386.045 3
        30.100          23.000
  24257078.381    24257077.783    24257076.275   127471811.333 3  99328686.941
        19.300           3.000
  24602203.436    24602203.300    24602203.557   129285463.896 3 100741921.641 3
        21.100          19.300
  21945820.008    21945818.736    21945815.543   115326086.507 7  89864494.893 6
        45.000          37.000
  24269878.326    24269877.768    24269878.447   127539064.345 3  99381086.957 2
        19.300          12.600
  22305545.529    22305545.043    22305542.596   117216490.943 6  91337540.384 5
        38.000          30.100
  20525604.887    20525603.860    20525599.826   107862872.279 8  84049016.119 7
        49.000          46.000
  22913109.682    22913109.472    22913108.547   120409198.309 5  93825347.808 4
        34.000          24.900
 11  1  1  0  2 30.0000000  0 10G14G09G06G11G27G19G24G18G22G03
  20780157.840    20780157.360    20780155.205   109200527.558 7  85091334.688 7
        44.000          43.000
  22908302.189    22908301.977    22908300.135   120383973.921 5  93805700.781 3
        31.000          23.000
  23162271.973    23162271.672    23162271.685   121718578.311 5  94845656.592 3
        30.100          23.800
  24237665.190    24237664.562    24237663.534   127369793.410 3  99249192.533
        21.100
  24611766.791    24611766.583    24611765.999   129335715.668 3 100781078.877 3
        21.100          19.900
  21950139.422    21950138.164    21950135.514   115348786.836 7  89882183.459 6
        45.000          37.000
  24250734.121    24250733.759    24250734.228   127438462.970 2  99302696.361 2
        17.800          17.800
  22319043.495    22319042.960    22319040.543   117287423.733 6  91392812.684 5
        37.000          30.100
  20530929.184    20530928.096    20530924.143   107890851.900 8  84070818.428 7
        49.000          46.000
  22930229.010    22930228.422    22930227.757   120499158.582 5  93895446.701 4
        33.000          24.900
 11  1  1  0  3  0.0000000  0 10G14G09G06G11G27G19G24G18G22G03
  20771388.227    20771387.818    20771385.779   109154443.996 7  85055425.439 7
        45.000          43.000
  22910198.100    22910197.583    22910195.903   120393936.365 5  93813463.733 3
        31.000          22.100
  23179477.039    23179476.822    23179476.435   121808990.203 5  94916107.397 3
        31.000          23.000
  24218288.349    24218287.713    24218286.609   127267966.806 3  99169847.198
        22.100           3.000
  24621415.323    24621415.158    24621414.602   129386417.868 3 100820587.101 3
        22.100          19.300
  21954569.781    21954568.533    21954565.837   115372068.987 7  89900325.390 6
        44.000          37.000
  24231607.608    24231607.147    24231608.331   127337953.653 3  99224377.547 3
        19.300          19.900
  22332578.045    22332577.431    22332574.878   117358547.987 6  91448234.177 4
        37.000          29.000
  20536315.430    20536314.291    20536310.411   107919156.686 8  84092874.112 7
        49.000          46.000
  22947401.593    22947401.079    22947400.671   120589403.248 5  93965767.204 3
        32.000          23.000
 11  1  1  0  3 30.0000000  0 10G14G09G06G11G27G19G24G18G22G03
  20762715.680    20762715.310    20762713.185   109108869.110 7  85019912.556 7
        44.000          43.000
  22912222.907    22912222.655    22912221.112   120404578.043 5  93821755.972 3
        31.000          23.000
  23196723.236    23196723.208    23196723.227   121899620.604 4  94986728.483 4
        29.000          24.900
  24198945.211    24198944.969    24198943.939   127166323.887 2  99090645.013
        16.100
  24631146.854    24631146.850    24631145.539   129437559.040 3 100860437.389 2
        21.100          12.600
  21959108.936    21959107.638    21959104.752   115395921.787 7  89918911.983 6
        44.000          37.000
  24212497.131    24212497.159    24212497.662   127237528.356 3  99146124.163 3
        23.800          19.300
  22346146.680    22346146.288    22346143.847   117429852.784 6  91503796.343 4
        37.000          29.000
  20541761.311    20541760.338    20541756.452   107947776.163 8  84115175.009 7
        49.000          46.000
  22964626.837    22964626.099    22964625.110   120679919.276 5  94036299.184 3
        33.000          23.800
 11  1  1  0  4  0.0000000  0 10G14G09G06G11G27G19G24G18G22G03
  20754140.408    20754139.834    20754137.677   109063804.501 7  84984797.294 7
        44.000          43.000
  22914376.898    22914376.610    22914375.500   120415899.113 5  93830577.593 3
        31.000          23.000
  23214010.870    23214010.728    23214010.677   121990467.164 5  95057517.973 4
        30.100          25.900
  24179638.122    24179637.624    24179637.073   127064866.882 2  99011587.647
        15.100
  24640961.357    24640961.158    24640960.606   129489137.707 3 100900628.591 2
        19.300          12.600
  21963756.252    21963755.085    21963751.813   115420344.195 7  89937942.436 6
        44.000          36.000
  24193403.614    24193403.068    24193403.121   127137188.736 3  99067937.539 2
        23.000          17.000
  22359749.655    22359749.207    22359746.820   117501337.634 6  91559498.822 4
        37.000          28.100
  20547267.368    20547266.320    20547262.317   107976709.784 8  84137720.690 7
        49.000          46.000
  22981901.690    22981901.438    22981900.870   120770703.718 5  94107040.299 3
        33.000          23.000
 11  1  1  0  4 30.0000000  0 10G14G09G06G11G27G19G24G18G22G03
  20745663.041    20745662.561    20745660.380   109019255.841 7  84950084.072 7
        44.000          44.000
  22916661.419    22916661.326    22916659.689   120427904.230 5  93839932.241 3
        30.100          23.000
  23231339.487    23231339.370    23231339.383   122081531.760 4  95128477.381 3
        28.100          23.000
  24160368.590    24160367.973    24160367.238   126963603.259 2  98932681.016
        15.100           3.000
  24650861.259    24650860.829    24650859.400   129541157.241 3 100941163.310 2
        19.300          12.600
  21968513.514    21968512.076    21968508.742   115445340.598 7  89957420.168 6
        44.000          37.000
  24174327.581    24174326.902    24174326.154   127036941.517 3  98989822.913 1
        23.800           6.500
  22373388.097    22373387.599    22373385.110   117573006.919 6  91615345.009 4
        37.000          29.000
  20552833.922    20552832.797    20552828.833   108005961.890 8  84160514.543 7
        49.000          46.000
  22999228.789    22999228.548    22999228.227   120861758.598 5  94177992.144 3
        31.000          23.800
 11  1  1  0  5  0.0000000  0 10G14G09G06G11G27G19G24G18G22G03
  20737283.024    20737282.648    20737280.318   108975218.669 7  84915769.412 7
        45.000          43.000
  22919075.060    22919074.569    22919073.554   120440587.814 5  93849815.563 4
        30.100          24.900
  23248709.059    23248708.534    23248708.157   122172806.686 4  95199600.682 3
        29.000          23.000
  24141135.039    24141134.896    24141133.777   126862530.011 3  98853922.713 1
        19.900          11.000
  24660842.279    24660842.266    24660841.347   129593610.741 3 100982036.174 2
        21.100          12.600
  21973377.635    21973376.248    21973373.828   115470904.506 7  89977340.096 6
        44.000          37.000
  24155268.438    24155267.485    24155267.121   126936783.110 3  98911777.487
        22.100           3.000
  22387060.352    22387059.933    22387057.248   117644854.542 6  91671330.172 4
        37.000          28.100
  20558459.632    20558458.662    20558454.782   108035526.612 8  84183551.990 7
        49.000          46.000
  23016605.806    23016605.431    23016605.222   120953075.556 5  94249148.201 4
        31.000          24.900
 11  1  1  0  5 30.0000000  0 10G14G09G06G11G27G19G24G18G22G03
  20729001.126    20729000.675    20728998.433   108931697.273 7  84881856.656 7
        45.000          44.000
  22921618.932    22921618.467    22921617.408   120453953.564 5  93860230.438 3
        31.000          23.000
  23266118.463    23266118.174    23266117.254   122264292.518 5  95270888.333 3
        30.100          22.100
  24121938.140    24121938.631    24121937.312   126761653.328 3  98775317.582 3
        19.900          19.300
  24670907.080    24670906.613    24670906.350   129646500.512 3 101023248.998 2
        21.100          16.100
  21978350.414    21978349.303    21978346.862   115497038.460 7  89997704.217 6
        44.000          37.000
  24136225.756    24136225.736    24136225.490   126836719.334 3  98833805.788
        23.800
  22400766.846    22400766.395    22400763.875   117716883.363 6  91727456.510 4
        37.000          28.100
  20564145.768    20564144.784    20564140.837   108065407.079 8  84206835.473 7
        49.000          46.000
  23034032.616    23034032.332    23034032.244   121044655.275 5  94320509.010 4
        32.000          24.900
 11  1  1  0  6  0.0000000  0 10G14G09G06G11G27G19G24G18G22G03
  20720816.237    20720815.844    20720813.704   108888685.909 7  84848341.323 7
        45.000          44.000
  22924290.386    22924290.056    22924289.196   120467994.361 5  93871171.318 3
        31.000          23.000
  23283565.418    23283565.726    23283565.400   122355980.019 5  95342333.142 3
        30.100          23.000
  24102779.102    24102779.189    24102777.103   126660968.789 2  98696862.190 2
        17.000          12.600
  24681052.872    24681052.647    24681051.929   129699818.146 3 101064795.227 2
        19.300          17.800
  21983430.876    21983429.616    21983426.582   115523734.968 7  90018506.702 6
        44.000          37.000
  24117200.924    24117200.750    24117200.386   126736745.113 3  98755903.833
        23.000           3.000
  22414506.852    22414506.332    22414503.709   117789085.999 6  91783718.293 4
        37.000          29.000
  20569890.481    20569889.566    20569885.591   108095596.027 8  84230359.329 7
        49.000          46.000
  23051508.293    23051507.570    23051507.506   121136488.079 5  94392067.041 3
        30.100          23.800
 11  1  1  0  6 30.0000000  0 10G14G09G06G11G27G19G24G18G22G03
  20712731.495    20712731.146    20712728.953   108846200.324 7  84815235.695 7
        45.000          44.000
  22927093.330    22927093.166    22927092.188   120482725.005 5  93882649.765 3
        31.000          23.000
  23301053.923    23301053.730    23301053.585   122447880.930 4  95413944.214 3
        28.100          23.000
  24083659.952    24083659.541    24083657.147   126560493.711 3  98618569.992 2
        22.100          15.100
  24691283.290    24691282.767    24691282.345   129753576.966 3 101106685.220 3
        21.100          19.300
  21988620.841    21988619.516    21988616.233   115551007.533 7  90039758.063 6
        44.000          36.000
  24098197.542    24098196.851    24098196.408   126636876.980 3  98678084.565 2
        23.000          16.100
  22428282.348    22428281.628    22428279.168   117861476.809 6  91840126.714 4
        36.000          28.100
  20575696.846    20575695.844    20575691.875   108126107.947 8  84254134.850 7
        48.000          46.000
  23069034.087    23069033.442    23069033.367   121228585.739 5  94463831.423 4
        31.000          25.900
 11  1  1  0  7  0.0000000  0 10G14G09G06G11G27G19G24G18G22G03
  20704744.963    20704744.533    20704742.315   108804230.528 7  84782531.975 7
        44.000          44.000
  22930026.522    22930025.958    22930023.925   120498134.297 5  93894657.011 3
        31.000          22.100
  23318579.724    23318579.737    23318579.921   122539982.140 4  95485711.361 3
        28.100          23.000
  24064578.124    24064577.943    24064575.814   126460219.429 3  98540434.249 2
        22.100          12.600
  24701594.438    24701594.259    24701592.911   129807764.503 3 101148909.276 2
        22.100          13.900
  21993917.702    21993916.461    21993913.684   115578844.258 7  90061449.024 6
        44.000          37.000
  24079211.736    24079211.287    24079210.922   126537105.932 4  98600340.948 2
        24.900          15.100
  22442092.151    22442091.223    22442088.146   117934044.169 6  91896672.691 4
        37.000          28.100
  20581562.450    20581561.306    20581557.346   108156931.373 8  84278153.104 7
        48.000          45.000
  23086607.496    23086607.080    23086606.529   121320934.005 5  94535791.089 4
        32.000          24.900
 11  1  1  0  7 30.0000000  0 10G14G09G06G11G27G19G24G18G22G03
  20696857.412    20696856.935    20696854.791   108762781.312 7  84750233.903 7
        44.000          44.000
  22933087.695    22933087.489    22933085.857   120514225.870 5  93907195.920 3
        30.100          21.100
  23336145.125    23336144.700    23336143.647   122632284.700 4  95557635.404 3
        29.000          19.900
  24045536.049    24045535.823    24045534.478   126360152.326 3  98462459.957
        22.100
  24711988.462    24711987.867    24711987.275   129862383.094 3 101191469.229 1
        21.100           9.000
  21999322.415    21999321.346    21999318.931   115607248.057 7  90083581.855 6
        44.000          37.000
  24060244.127    24060244.138    24060244.671   126437438.011 3  98522677.701 2
        23.000          15.100
  22455934.735    22455934.239    22455931.537   118006791.273 6  91953358.744 4
        37.000          29.000
  20587487.778    20587486.782    20587482.817   108188069.935 8  84302416.922 7
        48.000          45.000
  23104229.286    23104228.677    23104227.567   121413534.704 5  94607947.474 3
        32.000          23.800
 11  1  1  0  8  0.0000000  0 10G14G09G06G11G27G19G24G18G22G03
  20689067.569    20689067.064    20689064.868   108721845.265 7  84718335.702 7
        45.000          44.000
  22936279.020    22936278.350    22936276.230   120530991.845 5  93920260.302 3
        31.000          22.100
  23353746.059    23353745.793    23353744.723   122724778.262 4  95629708.310 2
        29.000          17.800
  24026532.036    24026531.611    24026530.796   126260286.763 3  98384642.647
        19.900
  24722462.207    24722461.649    24722460.279   129917422.917 3 101234357.447 2
        21.100          12.600
  22004834.001    22004832.737    22004829.951   115636209.788 7  90106149.446 6
        44.000          37.000
  24041297.051    24041296.560    24041296.454   126337866.901 4  98445089.895 3
        24.900          19.300
  22469810.524    22469810.053    22469807.552   118079709.493 6  92010178.131 4
        36.000          29.000
  20593471.472    20593470.471    20593466.609   108219514.843 8  84326919.451 7
        48.000          45.000
  23121896.180    23121895.479    23121894.610   121506376.374 5  94680291.624 3
        30.100          23.000
 11  1  1  0  8 30.0000000  0 10G14G09G06G11G27G19G24G18G22G03
  20681376.079    20681375.667    20681373.384   108681426.674 7  84686840.710 7
        45.000          44.000
  22939597.819    22939597.411    22939595.770   120548435.124 5  93933852.491 3
        31.000          22.100
  23371383.123    23371382.810    23371382.092   122817462.672 5  95701929.917 3
        30.100          22.100
  24007568.120    24007567.362    24007566.870   126160628.659 3  98306987.004
        19.300
  24733015.444    24733015.637    24733015.448   129972886.075 3 101277575.512 2
        19.900          13.900
  22010452.183    22010450.852    22010447.762   115665731.657 7  90129153.507 6
        44.000          36.000
  24022369.671    24022368.941    24022368.756   126238398.252 3  98367581.902 3
        23.800          19.300
  22483719.316    22483719.015    22483716.326   118152801.799 6  92067133.159 4
        37.000          28.100
  20599514.221    20599513.116    20599509.276   108251269.352 8  84351663.228 7
        48.000          45.000
  23139608.610    23139608.118    23139607.630   121599459.300 4  94752823.746 3
        29.000          22.100
 11  1  1  0  9  0.0000000  0 10G14G09G06G11G27G19G24G18G22G03
  20673785.507    20673785.063    20673782.655   108641537.137 7  84655757.973 7
        45.000          44.000
  22943047.823    22943047.565    22943046.298   120566566.325 5  93947980.709 3
        31.000          22.100
  23389058.203    23389057.916    23389057.532   122910346.745 4  95774307.088 3
        28.100          21.100
  23988645.781    23988645.146    23988644.257   126061191.370 3  98229503.442
        22.100
  24743652.755    24743652.192    24743651.327   130028781.654 3 101321130.495 2
        19.300          17.000
  22016177.775    22016176.692    22016173.659   115695823.311 7  90152601.558 6
        43.000          36.000
  24003462.581    24003462.135    24003462.149   126139044.644 3  98290163.596 2
        23.000          17.000
  22497663.656    22497663.020    22497660.406   118226078.306 5  92124231.729 4
        35.100          28.100
  20605617.658    20605616.653    20605612.741   108283343.460 8  84376656.039 7
        48.000          45.000
  23157369.469    23157368.937    23157368.689   121692791.660 5  94825550.243 3
        30.100          22.100
 11  1  1  0  9 30.0000000  0 10G14G09G06G11G27G19G24G18G22G03
  20666293.269    20666292.696    20666290.259   108602164.286 7  84625077.842 7
        45.000          44.000
  22946626.771    22946626.398    22946624.583   120585371.186 5  93962633.861 3
        31.000          22.100
  23406768.920    23406768.804    23406768.202   123003414.582 5  95846827.447 3
        30.100          21.100
  23969762.847    23969762.621    23969760.801   125961963.815 3  98152183.328 1
        23.000          11.000
  24754368.539    24754368.295    24754367.352   130085094.550 3 101365010.676 2
        21.100          13.900
  22022010.068    22022008.676    22022005.835   115726470.254 7  90176482.297 6
        43.000          37.000
  23984575.983    23984575.373    23984575.323   126039794.501 3  98212825.907 2
        19.300          12.600
  22511640.218    22511639.642    22511636.904   118299524.796 6  92181462.755 4
        36.000          28.100
  20611779.490    20611778.363    20611774.448   108315723.487 8  84401887.228 7
        48.000          45.000
  23175174.411    23175173.991    23175173.698   121786356.801 5  94898458.139 3
        31.000          23.000
 11  1  1  0 10  0.0000000  0 10G14G09G06G11G27G19G24G18G22G03
  20658899.736    20658899.161    20658896.674   108563311.191 7  84594802.722 7
        44.000          44.000
  22950334.444    22950333.736    22950331.904   120604852.091 5  93977813.804 3
        30.100          22.100
  23424514.304    23424513.758    23424512.803   123096665.265 4  95919490.296 3
        29.000          19.300
  23950921.639    23950921.099    23950919.431   125862951.000 4  98075030.562 3
        25.900          19.300
  24765164.848    24765164.342    24765163.497   130141825.711 3 101409216.814 1
        23.000           9.000
  22027947.902    22027946.700    22027943.968   115757673.942 7  90200796.866 6
        44.000          37.000
  23965709.528    23965709.279    23965708.912   125940652.060 3  98135572.113 1
        23.800           6.500
  22525648.860    22525648.301    22525646.008   118373143.340 5  92238827.847 4
        35.100          27.100
  20617999.618    20617998.713    20617994.772   108348411.342 8  84427358.282 7
        49.000          45.000
  23193023.152    23193022.627    23193022.654   121880154.312 4  94971547.100 3
        29.000          21.100
 11  1  1  0 10 30.0000000  0 10G14G09G06G11G27G19G24G18G22G03
  20651607.308    20651606.830    20651604.449   108524990.299 7  84564942.300 7
        44.000          44.000
  22954171.979    22954171.496    22954169.981   120625020.775 5  93993529.660 3
        31.000          22.100
  23442295.715    23442295.198    23442293.847   123190108.341 4  95992303.097 2
        28.100          15.100
  23932123.573    23932123.246    23932121.283   125764167.357 4  97998056.364 2
        25.900          17.800
  24776042.223    24776041.478    24776040.377   130198985.523 3 101453756.994 1
        22.100           9.000
  22033993.965    22033992.737    22033989.910   115789444.972 7  90225553.517 6
        44.000          37.000
  23946866.420    23946866.075    23946865.816   125841631.340 4  98058413.114
        25.900           3.000
  22539693.269    22539692.661    22539690.082   118446945.133 5  92296335.728 4
        35.100          27.100
  20624280.861    20624279.837    20624275.799   108381418.501 8  84453078.150 7
        48.000          45.000
  23210918.560    23210917.857    23210917.356   121974193.185 4  95044824.129 3
        28.100          21.100
 11  1  1  0 11  0.0000000  0 10G14G09G06G11G27G19G24G18G22G03
  20644412.187    20644411.677    20644409.564   108487180.282 7  84535479.965 7
        44.000          45.000
  22958136.085    22958135.590    22958134.448   120645854.423 5  94009763.677 3
        31.000          23.800
  23460108.032    23460107.738    23460108.043   123283718.775 4  96065246.302 3
        24.900          19.300
  23913366.050    23913365.689    23913363.085   125665592.833 4  97921245.083 1
        24.900          11.000
  24786995.952    24786995.764    24786993.999   130256550.069 3 101498612.489 1
        19.300           9.000
  22040143.054    22040141.853    22040139.121   115821759.899 7  90250733.979 6
        44.000          37.000
  23928042.940    23928042.067    23928042.207   125742712.177 3  97981333.293 1
        23.800          11.000
  22553767.432    22553767.127    22553764.676   118520907.382 6  92353968.654 4
        36.000          27.100
  20630618.265    20630617.296    20630613.336   108414722.196 8  84479029.078 7
        48.000          45.000
  23228854.863    23228854.437    23228853.622   122068448.446 5  95118269.763 3
        30.100          22.100
 11  1  1  0 11 30.0000000  0 11G14G09G06G11G27G19G24G18G32G22G03
  20637317.026    20637316.631    20637314.606   108449895.841 7  84506427.169 7
        44.000          45.000
  22962230.131    22962229.497    22962227.963   120667366.209 5  94026526.129 3
        31.000          22.100
  23477955.917    23477955.943    23477955.597   123377507.962 4  96138328.722 3
        28.100          21.100
  23894650.359    23894649.987    23894647.817   125567244.043 3  97844609.711 1
        22.100           9.000
  24798028.425    24798028.317    24798028.144   130314531.767 3 101543793.062 1
        19.300           6.500
  22046398.296    22046397.035    22046394.068   115854631.394 7  90276348.141 6
        43.000          36.000
  23909241.518    23909240.669    23909240.827   125643910.477 4  97904345.019 2
        24.900          15.100
  22567875.328    22567874.744    22567872.267   118595043.480 5  92411737.036 4
        35.100          27.100
  24553035.249    24553034.156    24553034.582   129027051.417 2 100540559.255 1
        17.800          11.000
  20637014.894    20637013.781    20637009.823   108448335.783 8  84505221.482 7
        48.000          45.000
  23246833.895    23246833.751    23246833.300   122162931.163 5  95191892.657 3
        30.100          22.100
 11  1  1  0 12  0.0000000  0 11G14G09G06G11G27G19G24G18G32G22G03
  20630322.232    20630321.833    20630319.622   108413137.566 7  84477784.370 7
        44.000          45.000
  22966452.223    22966451.984    22966450.887   120689556.105 5  94043816.967 3
        31.000          22.100
  23495837.286    23495837.368    23495836.895   123471473.231 4  96211548.389 3
        28.100          23.800
  23875977.073    23875977.407    23875975.912   125469123.187 2  97768151.978 1
        16.100           6.500
  24809142.013    24809141.632    24809140.747   130372928.932 2 101589297.361 2
        17.800          16.100
  22052759.179    22052757.927    22052754.876   115888057.986 7  90302394.839 6
        43.000          36.000
  23890462.087    23890461.735    23890462.082   125545228.366 3  97827449.951 3
        23.800          19.300
  22582016.236    22582015.546    22582013.256   118669352.919 5  92469640.482 4
        35.100          27.100
  24535921.583    24535920.894    24535921.706   128937124.624 2 100470486.549 1
        17.800           6.500
  20643469.945    20643468.989    20643465.170   108482258.941 8  84531655.115 7
        48.000          45.000
  23264855.955    23264855.573    23264855.918   122257638.023 4  95265690.159 4
        29.000          25.900
 11  1  1  0 12 30.0000000  0 11G14G09G06G11G27G19G24G18G32G22G03
  20623427.120    20623426.581    20623424.209   108376902.341 7  84449549.153 7
        44.000          45.000
  22970802.938    22970802.658    22970801.409   120712419.610 5  94061632.699 3
        31.000          22.100
  23513750.853    23513750.563    23513749.749   123565607.619 4  96284899.832 3
        28.100          21.100
  23857348.043    23857348.578    23857347.412   125371229.265 3  97691871.089 2
        19.300          12.600
  24820332.305    24820331.991    24820330.952   130431735.862 3 101635120.954 2
        19.300          12.600
  22059224.532    22059223.343    22059220.675   115922034.876 7  90328870.349 6
        43.000          37.000
  23871706.055    23871705.751    23871706.113   125446663.714 3  97750646.410 3
        23.000          19.900
  22596188.796    22596188.028    22596185.459   118743830.905 5  92527675.276 4
        35.100          25.900
  24518828.143    24518827.256    24518828.238   128847298.761 2 100400492.509
        17.000           3.000
  20649983.630    20649982.472    20649978.530   108516487.391 8  84558326.637 7
        48.000          45.000
  23282919.725    23282919.229    23282918.988   122352562.425 5  95339657.193 3
        31.000          23.000
 11  1  1  0 13  0.0000000  0 11G14G09G06G11G27G19G24G18G32G22G03
  20616631.865    20616631.457    20616629.064   108341193.685 7  84421724.236 7
        44.000          45.000
  22975282.404    22975282.098    22975280.632   120735959.121 5  94079975.180 3
        31.000          23.000
  23531695.356    23531695.115    23531695.230   123659912.162 4  96358383.860 3
        24.900          19.300
  23838764.802    23838764.243    23838763.310   125273567.477 2  97615771.050
        16.100
  24831600.734    24831600.677    24831599.578   130490953.572 2 101681264.647 1
        17.800           6.500
  22065794.950    22065793.807    22065791.470   115956563.821 7  90355776.017 6
        43.000          37.000
  23852973.259    23852973.196    23852973.091   125348221.440 4  97673938.223 3
        28.100          21.100
  22610393.835    22610393.300    22610390.759   118818480.175 5  92585843.539 4
        35.100          25.900
  24501755.856    24501754.592    24501755.158   128757577.395 3 100330579.862 1
        21.100           6.500
  20656555.584    20656554.501    20656550.509   108551023.486 8  84585237.882 7
        48.000          45.000
  23301024.599    23301024.509    23301023.772   122447704.199 5  95413793.634 3
        32.000          21.100
 11  1  1  0 13 30.0000000  0 11G14G09G06G11G27G19G24G18G32G22G03
  20609937.502    20609937.037    20609934.706   108306014.603 7  84394311.982 7
        44.000          45.000
  22979890.737    22979890.539    22979889.068   120760176.295 5  94098845.719 3
        31.000          22.100
  23549673.193    23549673.303    23549672.858   123754385.981 4  96431999.815 2
        25.900          16.100
  23820225.100    23820225.070    23820223.748   125176142.604 3  97539855.592
        22.100           3.000
  24842947.513    24842947.561    24842947.023   130550582.814 2 101727729.029 2
        16.100          13.900
  22072470.867    22072469.864    22072467.304   115991645.602 7  90383112.467 6
        43.000          37.000
  23834265.169    23834264.818    23834264.021   125249905.756 4  97597328.654 3
        29.000          19.300
  22624632.074    22624631.772    22624629.444   118893302.451 5  92644146.620 4
        35.100          28.100
  24484702.161    24484701.540    24484701.899   128667963.572 3 100260751.019
        23.800
  20663186.560    20663185.438    20663181.421   108585869.118 8  84612390.326 7
        48.000          44.000
  23319171.416    23319170.896    23319169.979   122543062.918 5  95488099.122 3
        31.000          21.100
 11  1  1  0 14  0.0000000  0 11G14G09G06G11G27G19G24G18G32G22G03
  20603342.789    20603342.221    20603339.918   108271358.519 7  84367307.254 7
        44.000          45.000
  22984626.791    22984626.607    22984625.012   120785063.164 5  94118238.104 3
        31.000          23.000
  23567682.053    23567681.724    23567681.321   123849019.144 4  96505739.935 3
        29.000          19.900
  23801729.919    23801730.162    23801728.007   125078950.087 4  97464121.169 2
        25.900          12.600
  24854372.750    24854372.061    24854370.686   130610614.995 3 101774507.361 2
        19.300          12.600
  22079250.749    22079249.486    22079246.518   116027271.565 7  90410872.954 6
        43.000          36.000
  23815579.033    23815578.521    23815578.071   125151711.646 4  97520813.775 2
        29.000          13.900
  22638901.732    22638901.002    22638898.930   118968289.579 5  92702578.137 4
        34.000          27.100
  24467667.629    24467666.795    24467667.423   128578450.771 3 100191000.829
        23.000
  20669874.727    20669873.756    20669869.776   108621016.591 8  84639777.966 7
        48.000          44.000
  23337356.274    23337356.058    23337355.571   122638628.267 4  95562565.618 3
        29.000          22.100
 11  1  1  0 14 30.0000000  0 11G14G09G06G11G27G19G24G18G32G22G03
  20596848.597    20596848.125    20596845.831   108237232.023 7  84340715.196 7
        44.000          45.000
  22989490.930    22989490.560    22989489.178   120810625.212 5  94138156.586 3
        30.100          19.300
  23585720.598    23585720.683    23585720.442   123943814.804 4  96579606.670 3
        28.100          19.900
  23783280.779    23783280.549    23783278.562   124981998.044 3  97388574.154 2
        23.000          16.100
  24865872.725    24865872.439    24865871.036   130671054.155 3 101821602.815
        21.100           3.000
  22086134.334    22086133.162    22086130.305   116063446.571 7  90439061.287 6
        43.000          36.000
  23796917.347    23796917.033    23796917.365   125053646.856 4  97444399.695 2
        24.900          16.100
  22653203.514    22653203.208    22653200.575   119043447.232 5  92761142.543 4
        34.000          25.900
  24450654.779    24450653.916    24450654.894   128489045.770 3 100121334.634 1
        23.000           6.500
  20676621.640    20676620.685    20676616.693   108656471.426 8  84667405.115 7
        49.000          44.000
  23355581.015    23355580.889    23355580.874   122734403.323 4  95637195.485 3
        27.100          19.900
 11  1  1  0 15  0.0000000  0 11G14G09G06G11G27G19G24G18G32G22G03
  20590454.527    20590454.027    20590451.723   108203631.088 7  84314532.663 7
        44.000          45.000
  22994482.596    22994482.230    22994481.062   120836856.964 5  94158596.932 3
        31.000          22.100
  23603789.742    23603789.092    23603789.259   124038766.223 4  96653594.752 3
        25.900          21.100
  23764877.317    23764876.790    23764874.596   124885284.409 3  97313212.935 2
        21.100          17.000
  24877450.758    24877450.198    24877448.735   130731893.722 3 101869010.333 1
        21.100           9.000
  22093121.808    22093120.419    22093117.441   116100164.448 7  90467672.622 6
        43.000          36.000
  23778280.809    23778280.206    23778280.309   124955708.937 4  97368084.491 3
        24.900          19.900
  22667537.251    22667536.803    22667534.208   119118770.133 5  92819835.722 4
        34.000          25.900
  24433661.252    24433660.412    24433660.989   128399744.472 2 100051749.269 1
        17.000           6.500
  20683425.948    20683424.976    20683421.025   108692228.440 8  84695267.725 7
        48.000          44.000
  23373846.158    23373845.479    23373844.578   122830380.573 5  95711982.931 2
        30.100          16.100
 11  1  1  0 15 30.0000000  0 11G14G09G06G11G27G19G24G18G32G22G03
  20584160.371    20584159.920    20584157.639   108170555.378 7  84288759.401 7
        44.000          45.000
  22999601.487    22999601.380    22999599.299   120863756.927 5  94179557.946 3
        31.000          21.100
  23621887.614    23621887.086    23621886.055   124133869.354 4  96727701.052 2
        27.100          12.600
  23746518.878    23746518.479    23746516.405   124788811.035 3  97238038.938 3
        22.100          19.300
  24889104.372    24889103.776    24889102.232   130793131.166 3 101916727.829 1
        21.100          11.000
  22100211.468    22100210.386    22100207.735   116137422.742 7  90496705.063 6
        43.000          37.000
  23759668.365    23759667.761    23759668.037   124857898.974 3  97291869.005 3
        22.100          19.900
  22681902.103    22681901.412    22681898.925   119194256.611 5  92878656.341 4
        34.000          25.900
  24416686.688    24416686.183    24416687.343   128310546.610 2  99982244.513 1
        16.100           6.500
  20690287.333    20690286.378    20690282.582   108728286.043 8  84723364.564 7
        48.000          44.000
  23392147.636    23392147.070    23392145.656   122926556.121 5  95786924.914 2
        30.100          16.100
 11  1  1  0 16  0.0000000  0 11G14G09G06G11G27G19G24G18G32G22G03
  20577966.102    20577965.609    20577963.461   108138004.537 7  84263395.122 7
        44.000          45.000
  23004846.948    23004847.106    23004845.026   120891323.967 5  94201038.756 3
        31.000          21.100
  23640013.294    23640012.922    23640011.897   124229120.903 4  96801923.037 2
        27.100          16.100
  23728207.169    23728206.635    23728204.266   124692579.730 4  97163053.565 3
        24.900          21.100
  24900831.800    24900831.686    24900830.703   130854764.059 2 101964753.494
        17.800
  22107404.254    22107403.069    22107400.100   116175219.615 7  90526157.161 6
        43.000          36.000
  23741079.399    23741078.952    23741079.807   124760218.261 4  97215754.269 3
        24.900          19.900
  22696297.290    22696296.977    22696294.186   119269905.635 5  92937603.619 4
        34.000          25.900
  24399733.810    24399732.785    24399733.483   128221452.444 3  99912820.594 2
        19.900          17.800
  20697205.940    20697204.981    20697201.081   108764643.464 8  84751695.024 7
        48.000          44.000
  23410485.342    23410485.089    23410484.572   123022926.182 4  95862018.459 3
        28.100          19.900
 11  1  1  0 16 30.0000000  0 11G14G09G06G11G27G19G24G18G32G22G03
  20571873.012    20571872.516    20571870.310   108105984.856 7  84238444.735 7
        44.000          46.000
  23010220.633    23010220.367    23010218.807   120919562.549 5  94223042.875 3
        30.100          19.300
  23658168.139    23658167.545    23658166.696   124324523.689 4  96876262.866 2
        27.100          17.000
  23709942.538    23709942.119    23709939.343   124596598.434 4  97088263.000 2
        25.900          16.100
  24912636.362    24912636.001    24912634.873   130916796.238 3 102013090.294 1
        21.100           6.500
  22114699.619    22114698.529    22114695.565   116213558.891 7  90556031.924 6
        43.000          36.000
  23722517.336    23722516.651    23722517.198   124662674.117 4  97139745.920 3
        25.900          21.100
  22710724.937    22710724.295    22710721.493   119345721.953 5  92996681.274 4
        34.000          24.900
  24382800.631    24382799.586    24382800.413   128132468.077 2  99843482.209 3
        16.100          19.900
  20704182.859    20704181.706    20704177.601   108801305.724 8  84780263.025 7
        48.000          44.000
  23428862.251    23428861.549    23428861.314   123119493.355 4  95937265.576 3
        29.000          22.100
 11  1  1  0 17  0.0000000  0 11G14G09G06G11G27G19G24G18G32G22G03
  20565879.634    20565879.187    20565876.842   108074489.150 7  84213902.641 7
        44.000          46.000
  23015721.476    23015720.961    23015718.700   120948464.481 5  94245563.877 3
        31.000          21.100
  23676348.723    23676348.726    23676348.156   124420067.581 4  96950712.617 3
        25.900          19.300
  23691724.924    23691724.305    23691721.114   124500862.139 4  97013663.307 2
        25.900          15.100
  24924514.813    24924514.596    24924512.860   130979218.480 2 102061731.024 1
        13.900           6.500
  22122097.356    22122095.849    22122092.825   116252431.289 7  90586322.118 6
        43.000          36.000
  23703980.177    23703979.928    23703980.038   124565261.211 4  97063839.824 3
        25.900          19.300
  22725182.246    22725181.886    22725179.298   119421697.759 5  93055883.191 4
        34.000          24.900
  24365886.715    24365885.731    24365886.143   128043586.681 2  99774224.068 2
        17.800          16.100
  20711215.933    20711214.834    20711210.707   108838264.855 8  84809062.352 7
        48.000          44.000
  23447273.725    23447273.045    23447272.960   123216246.948 4  96012657.947 3
        28.100          23.000
 11  1  1  0 17 30.0000000  0 11G14G09G06G11G27G19G24G18G32G22G03
  20559988.460    20559987.991    20559985.671   108043531.092 7  84189779.498 7
        44.000          46.000
  23021349.869    23021349.331    23021347.371   120978041.959 5  94268611.281 3
        31.000          22.100
  23694558.745    23694558.593    23694558.729   124515763.004 3  97025280.435 3
        23.800          19.300
  23673555.944    23673555.540    23673552.651   124405386.315 3  96939266.585 2
        23.800          17.000
  24936469.246    24936468.743    24936467.638   131042042.001 2 102110684.430 1
        13.900           6.500
  22129597.753    22129596.719    22129593.591   116291849.118 7  90617037.310 6
        43.000          36.000
  23685471.836    23685471.281    23685470.320   124467994.857 4  96988047.891 1
        29.000          11.000
  22739672.965    22739672.365    22739670.063   119497845.466 5  93115219.066 4
        34.000          25.900
  24348994.634    24348994.178    24348994.818   127954822.062 3  99705056.892 2
        23.000          12.600
  20718307.694    20718306.734    20718302.629   108875533.128 8  84838102.569 7
        48.000          44.000
  23465722.679    23465721.955    23465722.308   123313197.823 4  96088204.035 3
        27.100          21.100
 11  1  1  0 18  0.0000000  0 11G14G09G06G11G27G19G24G18G32G22G03
  20554196.764    20554196.425    20554194.189   108013096.346 7  84166064.124 7
        44.000          46.000
  23027103.281    23027102.849    23027101.329   121008279.801 4  94292173.246 3
        29.000          22.100
  23712794.755    23712794.778    23712794.152   124611593.018 4  97099953.145 2
        27.100          17.800
  23655434.321    23655433.959    23655431.922   124310159.140 3  96865063.644 2
        22.100          17.800
  24948497.088    24948497.487    24948496.561   131105250.905 2 102159938.131 1
        17.800           9.000
  22137200.135    22137198.827    22137195.869   116331796.695 7  90648165.287 6
        44.000          36.000
  23666987.268    23666987.158    23666986.306   124370862.959 4  96912360.724 1
        27.100           9.000
  22754193.281    22754192.893    22754190.314   119574150.260 5  93174677.345 4
        34.000          24.900
  24332122.985    24332122.751    24332123.094   127866160.758 3  99635970.244 1
        22.100           6.500
  20725455.669    20725454.652    20725450.753   108913096.219 8  84867372.517 7
        48.000          44.000
  23484204.701    23484204.902    23484204.296   123410328.316 4  96163890.119 2
        27.100          12.600
 11  1  1  0 18 30.0000000  0 11G14G09G06G11G27G19G24G18G32G22G03
  20548506.919    20548506.525    20548504.195   107983195.331 7  84142764.645 7
        44.000          46.000
  23032984.962    23032984.512    23032982.234   121039186.194 5  94316256.174 3
        30.100          22.100
  23731057.047    23731057.186    23731056.594   124707563.748 4  97174735.535 1
        27.100           9.000
  23637362.729    23637362.017    23637359.913   124215192.221 3  96791063.489 2
        22.100          16.100
  24960600.273    24960600.191    24960599.126   131168852.186 3 102209497.610
        21.100
  22144903.887    22144902.705    22144899.776   116372281.027 7  90679711.512 6
        44.000          36.000
  23648531.760    23648531.209    23648530.561   124273876.432 4  96836786.820 2
        28.100          13.900
  22768744.802    22768744.388    22768741.863   119650620.301 5  93234264.387 4
        33.000          24.900
  24315272.299    24315272.141    24315272.593   127777612.264 3  99566971.468
        22.100
  20732661.441    20732660.379    20732656.518   108950962.758 8  84896878.917 7
        48.000          44.000
  23502724.247    23502723.787    23502723.063   123507644.405 4  96239720.834 1
        28.100          11.000
 11  1  1  0 19  0.0000000  0 11G14G09G06G11G27G19G24G18G32G22G03
  20542917.460    20542917.049    20542914.624   107953822.288 7  84119876.577 7
        44.000          46.000
  23038991.634    23038991.282    23038989.579   121070754.188 5  94340854.617 3
        30.100          22.100
  23749344.941    23749345.133    23749344.750   124803666.781 4  97249621.021 2
        24.900          15.100
  23619339.567    23619338.973    23619337.579   124120482.078 3  96717263.459 3
        21.100          19.300
  24972777.255    24972776.842    24972775.365   131232838.147 2 102259356.847 1
        17.800           9.000
  22152708.516    22152707.243    22152704.296   116413294.255 7  90711669.868 6
        43.000          36.000
  23630102.836    23630102.196    23630102.032   124177031.372 4  96761323.198 3
        24.900          19.900
  22783327.242    22783326.688    22783324.429   119727249.361 5  93293975.332 4
        34.000          25.900
  24298443.282    24298442.347    24298443.025   127689171.465 3  99498056.582
        21.100
  20739923.511    20739922.450    20739918.633   108989125.583 8  84926616.194 7
        48.000          44.000
  23521276.864    23521276.482    23521276.126   123605137.479 4  96315689.473 3
        29.000          19.900
 11  1  1  0 19 30.0000000  0 11G14G09G06G11G27G19G24G18G32G22G03
  20537428.938    20537428.407    20537426.034   107924979.882 7  84097401.986 7
        44.000          46.000
  23045124.800    23045124.355    23045123.560   121102985.534 4  94365969.960 3
        29.000          22.100
  23767658.725    23767658.160    23767657.796   124899902.009 4  97324609.482 2
        24.900          17.000
  23601365.817    23601366.114    23601364.487   124026033.811 3  96643667.472 3
        23.000          19.300
  24985025.573    24985025.695    24985024.826   131297209.842 3 102309516.613
        19.300           3.000
  22160613.679    22160612.497    22160609.780   116454838.361 7  90744041.886 6
        43.000          36.000
  23611701.428    23611701.011    23611701.203   124080332.455 4  96685973.444 3
        27.100          22.100
  22797940.550    22797939.768    22797936.891   119804039.684 5  93353811.943 4
        34.000          24.900
  24281635.146    24281634.230    24281634.331   127600841.677 3  99429228.267 1
        23.000          11.000
  20747242.525    20747241.388    20747237.657   109027587.149 8  84956586.248 7
        48.000          44.000
  23539863.347    23539862.773    23539862.710   123702807.196 4  96391795.737 3
        29.000          23.000
 11  1  1  0 20  0.0000000  0 11G14G09G06G11G27G19G24G18G32G22G03
  20532042.054    20532041.581    20532039.193   107896672.125 7  84075344.010 7
        44.000          46.000
  23051385.071    23051384.729    23051383.736   121135882.658 4  94391604.094 3
        29.000          23.000
  23785996.891    23785996.203    23785995.977   124996270.123 4  97399701.471 2
        24.900          16.100
  23583444.345    23583444.530    23583442.602   123931853.440 4  96570280.216 2
        25.900          15.100
  24997348.788    24997348.820    24997348.380   131361968.657 3 102359978.085 1
        19.300           6.500
  22168620.820    22168619.493    22168616.733   116496914.764 7  90776828.698 6
        43.000          36.000
  23593329.082    23593328.832    23593328.838   123983785.082 4  96610741.781 3
        29.000          23.000
  22812583.942    22812583.370    22812580.711   119880993.775 5  93413776.151 4
        33.000          24.900
  24264847.667    24264846.928    24264847.866   127512627.036 3  99360489.677 2
        19.300          13.900
  20754619.000    20754617.920    20754613.955   109066350.501 8  84986791.463 7
        48.000          44.000
  23558482.469    23558481.827    23558482.570   123800653.724 4  96468039.740 4
        25.900          24.900
 11  1  1  0 20 30.0000000  0 11G14G09G06G11G27G19G24G18G32G22G03
  20526755.767    20526755.386    20526752.928   107868892.713 7  84053697.733 7
        44.000          46.000
  23057770.814    23057770.395    23057768.878   121169438.150 5  94417751.248 3
        31.000          22.100
  23804357.787    23804357.922    23804357.899   125092761.821 4  97474889.788 3
        24.900          19.300
  23565573.665    23565573.132    23565570.373   123837936.896 4  96497098.515 2
        25.900          16.100
  25009744.945    25009744.380    25009743.116   131427105.821 2 102410734.313 1
        16.100          11.000
  22176727.630    22176726.392    22176723.194   116539515.063 7  90810023.715 6
        44.000          36.000
  23574984.234    23574983.875    23574984.137   123887384.640 4  96535624.611 3
        28.100          22.100
  22827257.136    22827256.844    22827253.890   119958104.276 5  93473862.247 4
        33.000          24.900
  24248081.692    24248081.351    24248082.190   127424521.468 3  99291836.077 1
        23.000           6.500
  20762051.330    20762050.444    20762046.492   109105408.834 8  85017226.537 7
        48.000          44.000
  23577134.103    23577133.199    23577133.923   123898667.766 3  96544414.235 3
        23.800          23.000
 11  1  1  0 21  0.0000000  0 11G14G09G06G11G27G19G24G18G32G22G03
  20521570.558    20521570.150    20521567.729   107841644.131 7  84032465.088 7
        44.000          46.000
  23064281.571    23064281.195    23064279.559   121203652.974 5  94444412.168 3
        30.100          19.900
  23822743.761    23822743.310    23822742.706   125189376.547 4  97550173.941 2
        25.900          15.100
  23547753.018    23547752.302    23547749.531   123744288.774 4  96424125.993 2
        25.900          15.100
  25022211.440    25022211.159    25022210.245   131492621.777 2 102461785.706
        16.100           3.000
  22184933.949    22184932.647    22184929.585   116582640.191 7  90843627.710 5
        43.000          35.100
  23556668.636    23556668.380    23556668.739   123791135.371 4  96460625.238 3
        28.100          22.100
  22841960.783    22841960.498    22841957.815   120035373.192 5  93534071.784 3
        33.000          23.800
  24231336.435    24231336.206    24231337.168   127336527.899 3  99223269.725 2
        23.000          13.900
  20769540.312    20769539.343    20769535.472   109144763.466 8  85047892.490 7
        48.000          43.000
  23595817.782    23595817.136    23595816.782   123996848.428 4  96620918.597 3
        24.900          21.100
 11  1  1  0 21 30.0000000  0 11G14G09G06G11G27G19G24G18G32G22G03
  20516486.590    20516486.164    20516483.751   107814927.477 7  84011646.934 7
        44.000          46.000
  23070917.610    23070917.356    23070916.130   121238526.733 5  94471586.547 3
        30.100          22.100
  23841152.171    23841151.508    23841151.090   125286112.363 3  97625552.519 2
        23.800          16.100
  23529983.123    23529982.964    23529981.099   123650912.369 4  96351365.188 1
        25.900          11.000
  25034751.391    25034750.960    25034749.978   131558515.448 2 102513131.459 1
        17.800           6.500
  22193240.158    22193238.903    22193235.950   116626288.870 7  90877639.645 6
        44.000          36.000
  23538382.990    23538382.270    23538382.776   123695040.279 4  96385746.007 3
        29.000          23.800
  22856694.853    22856694.271    22856691.841   120112800.527 5  93594404.757 3
        32.000          23.800
  24214613.002    24214612.619    24214614.018   127248647.780 3  99154791.823 2
        19.300          17.800
  20777085.776    20777084.798    20777080.822   109184414.679 8  85078789.548 7
        48.000          44.000
  23614532.881    23614531.969    23614530.857   124095194.003 5  96697551.503 2
        30.100          12.600
 11  1  1  0 22  0.0000000  0 11G14G09G06G11G27G19G24G18G32G22G03
  20511504.082    20511503.544    20511501.037   107788743.061 7  83991243.506 7
        44.000          46.000
  23077679.112    23077678.782    23077677.240   121274058.293 4  94499273.488 3
        29.000          21.100
  23859583.263    23859582.510    23859582.178   125382966.622 4  97701023.326 3
        24.900          19.300
  23512266.418    23512266.627    23512263.926   123557809.957 4  96278817.882
        28.100           3.000
  25047361.522    25047360.544    25047360.770   131624784.942 1 102564770.026
        11.000           3.000
  22201645.192    22201643.909    22201641.117   116670459.372 7  90912058.212 5
        43.000          35.100
  23520126.271    23520125.553    23520125.060   123599101.323 4  96310988.452 2
        27.100          17.000
  22871458.926    22871458.530    22871455.955   120190385.867 5  93654860.852 3
        32.000          23.000
  24197912.370    24197911.910    24197912.535   127160881.665 3  99086402.767 2
        19.300          15.100
  20784687.762    20784686.584    20784682.562   109224362.128 8  85109917.433 7
        48.000          43.000
  23633277.358    23633276.999    23633275.965   124193701.119 5  96774310.324 2
        30.100          13.900
 11  1  1  0 22 30.0000000  0 11G14G09G06G11G27G19G24G18G32G22G03
  20506622.719    20506622.116    20506619.666   107763091.306 7  83971255.144 7
        44.000          46.000
  23084565.850    23084565.345    23084563.099   121310246.943 4  94527472.432 3
        29.000          21.100
  23878035.967    23878035.482    23878035.090   125479936.646 4  97776584.353 3
        25.900          22.100
  23494603.024    23494602.257    23494599.568   123464984.322 4  96206486.232 2
        24.900          13.900
  25060043.936    25060043.503    25060042.716   131691428.636 3 102616700.168
        19.300
  22210149.421    22210148.110    22210145.596   116715150.259 7  90946882.273 6
        42.000          36.000
  23501900.378    23501899.397    23501898.420   123503320.865 4  96236354.358 3
        29.000          19.300
  22886253.216    22886252.526    22886249.811   120268128.674 5  93715439.660 3
        32.000          23.000
  24181233.264    24181232.672    24181233.417   127073230.522 4  99018103.267 2
        25.900          17.800
  20792345.648    20792344.658    20792340.613   109264605.331 8  85141275.778 7
        48.000          43.000
  23652052.717    23652052.204    23652051.929   124292366.643 4  96851192.540 2
        29.000          12.600
 11  1  1  0 23  0.0000000  0 11G14G09G06G11G27G19G24G18G32G22G03
  20501841.146    20501840.790    20501838.355   107737965.552 7  83951676.646 7
