     2.11           OBSERVATION DATA    G (GPS)             RINEX VERSION / TYPE
teqc  2009Oct19     WCDA Operator       20110102 00:10:44UTCPGM / RUN BY / DATE
Solaris x86 5.10|AMD64|cc SC5.8 -xarch=amd64|=+|=+          COMMENT
teqc  2009Oct19     WCDA Operator       20110102 00:10:41UTCCOMMENT
BIT 2 OF LLI FLAGS DATA COLLECTED UNDER A/S CONDITION       COMMENT
Stainless steel-pipe pedestal monument                      COMMENT
CONTACT gps@pgc.nrcan.gc.ca FOR ADDITIONAL INFORMATION      COMMENT
 SNR is mapped to RINEX snr flag value [0-9]                COMMENT
  L1 & L2: min(max(int(snr_dBHz/6), 0), 9)                  COMMENT
teqc windowed: start @ 2011 Jan  1 00:00:00.000             COMMENT
teqc windowed:  end  @ 2011 Jan  1 23:59:59.000             COMMENT
chwk  WCDA-ACP   987020   Chilliwack BC Canada              MARKER NAME
40142M001                                                   MARKER NUMBER
PGC-WCDA            GEOL. SURV. CANADA                      OBSERVER / AGENCY
4641123492          TRIMBLE NETRS       1.3-0   05 Apr 2010 REC # / TYPE / VERS
0220365587          TRM29659.00     SCIS                    ANT # / TYPE
 -2215259.7300 -3543996.8300  4802098.7700                  APPROX POSITION XYZ
        0.0000        0.0000        0.0000                  ANTENNA: DELTA H/E/N
     1     1                                                WAVELENGTH FACT L1/2
     8    C1    C2    P1    P2    L1    L2    S1    S2      # / TYPES OF OBSERV
teqc windowed: start @ 2011 Jan  1 00:00:00.000             COMMENT
teqc windowed:  end  @ 2011 Jan  1 23:59:59.000             COMMENT
  2011     1     1     0     0    0.0000000     GPS         TIME OF FIRST OBS
                                                            END OF HEADER
 11  1  1  0  0  0.0000000  0 10G06G14G21G19G22G27G24G18G03G09
  23195998.820                                    23195989.984    -6602990.534 6
  -2592258.06844        41.500          25.400
  20862290.633                                    20862279.980   -16908147.606 8
 -12073209.56547        50.900          42.100
  24476902.289                                    24476892.926    -2636423.266 6
   -858114.05842        38.000          15.600
  22011932.977                                    22011920.273    -8453017.001 7
  -6576659.43846        46.100          38.300
  20465719.117                                    20465705.945   -18234535.776 8
 -13185280.60547        51.200          45.500
  24435894.422                                    24435886.465    -2216262.007 6
  -1021375.16543        40.000          23.600
  24384305.727                                                      252561.43215
                        31.900
  22153886.078                                    22153874.840   -11344515.596 8
  -7663310.78145        48.000          35.200
  22967336.898                                    22967326.949    -1428501.267 7
   -409427.33644        44.600          26.700
  22776003.445                                    22775991.914   -10067390.458 7
  -7490022.88744        43.900          27.700
 11  1  1  0  0 30.0000000  0 10G06G14G21G19G22G27G24G18G03G09
  23213106.344                                    23213098.797    -6513084.859 6
  -2522201.73644        41.300          24.500
  20852605.219                                    20852593.688   -16959047.129 8
 -12112871.52646        50.800          41.800
  24497332.000                                    24497324.570    -2529056.470 5
   -774451.67142        34.000          16.300
  22016198.617                                    22016185.621    -8430602.672 8
  -6559193.76046        50.100          38.800
  20470375.156                                    20470361.809   -18210069.884 8
 -13166216.27347        53.200          45.600
  24445156.156                                    24445144.449    -2167606.091 6
   -983461.47143        41.700          22.000
  24364977.156                                                      150971.376 5
                        35.600
  22167079.195                                    22167067.195   -11275189.478 8
  -7609290.44145        49.300          34.700
  22984419.734                                    22984408.320    -1338737.478 7
   -339481.52844        45.800          29.000
  22777168.633                                    22777157.570   -10061266.918 7
  -7485251.27644        42.600          28.100
 11  1  1  0  1  0.0000000  0 10G06G14G21G19G22G27G24G18G03G09
  23230261.188                                    23230251.355    -6422948.811 7
  -2451965.83744        43.400          25.800
  20843014.875                                    20843003.637   -17009443.260 8
 -12152141.21646        50.500          41.500
  24517793.063                                    24517783.816    -2421546.312 6
   -690677.51142        37.200          16.300
  22020573.859                                    22020561.566    -8407607.645 8
  -6541275.56746        49.400          38.500
  20475094.492                                    20475081.203   -18185268.895 8
 -13146890.82347        53.700          45.700
  24454500.016                                    24454490.887    -2118492.954 6
   -945191.45243        40.900          22.600
  24345658.930                                                       49469.216 5
                        31.300
  22180309.797                                    22180298.383   -11205658.797 7
  -7555110.68245        47.800          34.900
  23001554.063                                    23001544.582    -1248689.224 7
   -269314.06744        44.600          29.800
  22778464.898                                    22778454.891   -10054451.314 7
  -7479940.41544        43.200          27.800
 11  1  1  0  1 30.0000000  0 11G06G14G21G19G22G27G24G18G03G11G09
  23247453.492                                    23247445.125    -6332592.635 6
  -2381558.41743        41.500          21.800
  20833519.328                                    20833508.734   -17059342.462 8
 -12191023.69046        50.300          41.900
  24538279.203                                    24538267.379    -2313901.890 6
   -606798.81742        40.400          15.600
  22025058.828                                    22025046.887    -8384040.659 7
  -6522911.67546        45.300          39.000
  20479876.195                                    20479862.789   -18160140.945 8
 -13127310.59447        50.200          45.500
  24463931.336                                    24463922.324    -2068931.643 6
   -906572.22044        40.100          24.600
  24326357.656                                                      -51950.82315
                        31.500
  22193578.297                                    22193567.469   -11135931.542 7
  -7500777.76245        47.500          35.200
  23018741.953                                    23018732.180    -1158367.049 7
   -198933.17144        44.700          28.600
  24304144.078                                                      414295.47915
                        34.100
  22779892.008                                    22779881.297   -10046951.274 7
  -7474096.19644        42.700          27.300
 11  1  1  0  2  0.0000000  0 11G06G14G21G19G22G27G24G18G03G11G09
  23264691.352                                    23264681.871    -6242016.983 7
  -2310979.98644        42.900          24.800
  20824118.820                                    20824108.109   -17108741.520 8
 -12229516.44646        50.300          41.500
  24558786.859                                    24558777.086    -2206123.179 6
   -522815.40542        40.200          15.600
  22029652.055                                    22029640.172    -8359900.720 8
  -6504101.32846        49.200          39.300
  20484720.484                                    20484706.961   -18134684.487 8
 -13107474.38147        52.700          45.600
  24473448.781                                    24473440.121    -2018921.539 7
   -867603.35344        42.100          25.300
  24307077.461                                                     -153284.969 6
                        37.900
  22206884.906                                    22206873.199   -11066006.690 8
  -7446290.86945        48.100          34.300
  23035981.266                                    23035972.664    -1067771.695 7
   -128339.42444        44.100          28.500
  24284713.672                                                      312193.133 5
                        33.300
  22781450.070                                    22781440.063   -10038764.253 7
  -7467716.67844        43.400          28.000
 11  1  1  0  2 30.0000000  0 11G06G14G21G19G22G27G24G18G03G11G09
  23281970.117                                    23281959.934    -6151223.107 7
  -2240231.54644        43.400          26.200
  20814814.172                                    20814803.168   -17157637.951 8
 -12267617.53946        50.100          41.800
  24579322.602                                    24579312.008    -2098209.908 6
   -438727.14842        38.700          16.300
  22034355.031                                    22034342.445    -8335186.823 7
  -6484843.77146        45.300          38.300
  20489627.211                                    20489613.922   -18108898.329 8
 -13087381.26847        51.300          45.600
  24483050.578                                    24483040.980    -1968462.848 6
   -828284.83943        40.600          22.500
  24287811.656                                                     -254529.980 6
                        38.100
  22220229.563                                    22220217.152   -10995883.559 8
  -7391649.45945        48.400          33.900
  23053271.859                                    23053263.727     -976904.991 7
    -57534.21844        44.000          28.400
  24265319.523                                                      210281.413 5
                        30.800
  22783139.930                                    22783128.574   -10029889.330 7
  -7460801.13444        44.700          28.500
 11  1  1  0  3  0.0000000  0 11G06G14G21G19G22G27G24G18G03G11G09
  23299285.602                                    23299277.469    -6060213.375 7
  -2169314.92743        42.200          22.800
  20805605.367                                    20805594.480   -17206030.472 8
 -12305325.98746        50.900          41.800
  24599880.000                                    24599872.922    -1990163.405 6
   -354535.02542        36.300          16.300
  22039167.305                                    22039154.367    -8309899.725 8
  -6465139.55346        48.900          37.700
  20494597.063                                    20494583.422   -18082782.584 8
 -13067031.33747        53.200          45.300
  24492737.141                                    24492727.133    -1917556.516 6
   -788617.53943        39.600          22.300
  24268560.547                                                     -355683.467 6
                        36.100
  22233611.047                                    22233598.227   -10925562.189 8
  -7336853.58245        48.000          34.000
  23070614.320                                    23070605.836     -885769.341 7
     13480.52844        42.600          27.700
  24245963.539                                                      108562.62414
                        25.900
  22784959.375                                    22784948.723   -10020325.885 7
  -7453349.09644        43.500          28.300
 11  1  1  0  3 30.0000000  0 10G06G14G21G19G22G27G24G18G03G09
  23316646.266                                    23316635.496    -5968992.249 6
  -2098233.51643        41.300          22.600
  20796492.516                                    20796481.453   -17253919.943 8
 -12342642.43147        50.200          42.000
  24620466.047                                    24620458.441    -1881986.900 5
   -270241.63742        35.700          15.600
  22044087.414                                    22044074.711    -8284042.176 7
  -6444990.83246        47.800          37.900
  20499629.063                                    20499615.715   -18056339.177 8
 -13046426.08247        52.400          45.800
  24502510.008                                    24502500.527    -1866205.688 6
   -748603.87944        40.900          24.500
  24249331.383                                    24249322.547     -456745.069 6
    353139.04553        39.900          18.300
  22247029.375                                    22247018.137   -10855045.063 7
  -7281905.17545        47.800          33.900
  23088008.758                                    23087998.750     -794369.443 7
     84701.23644        45.400          29.400
  22786909.766                                    22786898.938   -10010075.458 7
  -7445361.71144        44.200          28.300
 11  1  1  0  4  0.0000000  0 10G06G14G21G19G22G27G24G18G03G09
  23334043.445                                    23334034.023    -5877562.698 6
  -2026989.69443        41.500          22.900
  20787475.328                                    20787464.441   -17301305.423 8
 -12379566.15546        49.800          41.800
  24641077.211                                    24641068.023    -1773682.384 6
   -185848.59642        37.700          16.300
  22049116.906                                    22049104.145    -8257616.010 7
  -6424399.03446        46.200          39.800
  20504722.984                                    20504709.754   -18029569.317 8
 -13025566.44647        50.700          45.500
  24512365.875                                    24512355.691    -1814412.385 6
   -708245.47143        40.800          22.600
  24230117.695                                    24230107.570     -557713.746 6
    274462.19343        40.600          18.300
  22260485.172                                    22260473.758   -10784333.324 7
  -7226805.11745        46.400          33.700
  23105449.688                                    23105441.906     -702708.803 7
    156125.08944        43.200          27.900
  22788990.383                                    22788980.258    -9999138.480 7
  -7436839.39944        43.600          27.700
 11  1  1  0  4 30.0000000  0 10G06G14G21G19G22G27G24G18G03G09
  23351479.219                                    23351472.551    -5785927.509 6
  -1955585.68543        38.800          22.800
  20778554.102                                    20778543.273   -17348185.806 8
 -12416096.30946        51.000          41.900
  24661711.711                                    24661702.055    -1665251.135 6
   -101356.75942        37.200          16.900
  22054253.148                                    22054241.031    -8230621.544 7
  -6403364.38646        45.000          38.300
  20509879.398                                    20509866.285   -18002473.235 8
 -13004452.61347        49.300          45.100
  24522306.156                                    24522295.504    -1762178.142 6
   -667543.44443        40.700          22.500
  24210921.898                                    24210911.012     -658587.255 6
    195859.60243        40.200          18.300
  22273978.461                                    22273966.637   -10713427.265 7
  -7171553.63945        47.300          33.300
  23122941.867                                    23122933.617     -610790.171 7
    227749.99644        44.900          29.600
  22791201.773                                    22791192.820    -9987514.973 7
  -7427782.08744        43.900          27.900
 11  1  1  0  5  0.0000000  0 10G06G14G21G19G22G27G24G18G03G09
  23368958.203                                    23368948.547    -5694088.206 6
  -1884022.64643        39.700          20.900
  20769729.375                                    20769718.605   -17394559.414 8
 -12452231.56347        50.800          42.500
  24682369.477                                    24682360.230    -1556694.052 6
    -16766.82542        37.100          16.300
  22059498.344                                    22059486.109    -8203059.276 7
  -6381887.31446        45.900          38.500
  20515097.508                                    20515084.277   -17975050.613 8
 -12983084.32847        50.600          45.100
  24532329.578                                    24532319.102    -1709503.513 6
   -626498.23943        41.300          22.800
  24191743.781                                    24191733.773     -759363.013 6
    117333.09243        39.700          20.600
  22287508.383                                    22287496.969   -10642326.826 7
  -7116150.72145        47.000          33.600
  23140480.977                                    23140473.254     -518615.722 7
    299574.21444        43.800          28.700
  22793545.102                                    22793535.035    -9975204.346 7
  -7418189.38744        44.000          28.600
 11  1  1  0  5 30.0000000  0 10G06G14G21G19G22G27G24G18G03G09
  23386472.492                                    23386462.602    -5602049.034 6
  -1812303.80743        40.200          22.300
  20761001.359                                    20760990.473   -17440426.561 8
 -12487972.18047        51.000          42.600
  24703052.359                                    24703042.176    -1448013.981 6
     67918.97542        36.500          15.600
  22064850.789                                    22064838.965    -8174931.403 8
  -6359969.49246        48.000          38.600
  20520377.680                                    20520364.508   -17947302.933 8
 -12961462.75447        51.900          45.400
  24542435.922                                    24542425.387    -1656390.991 6
   -585111.85044        40.600          25.200
  24172586.453                                    24172575.566     -860039.877 6
     38883.65943        40.300          19.300
  22301074.797                                    22301063.383   -10571033.904 7
  -7060597.79145        47.300          33.300
  23158070.758                                    23158061.336     -426189.441 7
    371594.68944        44.600          27.600
  22796019.680                                    22796007.680    -9962207.654 7
  -7408062.07844        45.900          28.400
 11  1  1  0  6  0.0000000  0 10G06G14G21G19G22G27G24G18G03G09
  23404027.930                                    23404017.512    -5509802.832 6
  -1740423.65644        41.100          25.200
  20752371.391                                    20752360.680   -17485776.605 8
 -12523309.86147        50.500          42.600
  24723753.539                                    24723749.688    -1339202.653 5
    152707.03342        31.600          14.800
  22070312.273                                    22070300.215    -8146229.129 7
  -6337604.09346        47.900          38.300
  20525721.742                                    20525708.336   -17919221.093 8
 -12939580.79447        52.000          45.200
  24552628.344                                    24552617.867    -1602832.689 6
   -543378.06043        40.300          22.600
  24153448.195                                    24153438.656     -960606.586 6
    -39479.92342        38.900          16.300
  22314679.391                                    22314668.504   -10499539.482 7
  -7004887.84345        45.700          33.900
  23175707.867                                    23175697.801     -333504.736 7
    443816.53544        43.800          27.900
  22798624.773                                    22798613.477    -9948515.650 7
  -7397392.98044        44.500          28.900
 11  1  1  0  6 30.0000000  0 10G06G14G21G19G22G27G24G18G03G09
  23421616.336                                    23421607.207    -5417370.983 6
  -1668398.85743        41.400          22.300
  20743837.086                                    20743825.613   -17530626.868 8
 -12558258.09747        51.700          42.400
  24744479.805                                                    -1230279.79214
                        26.800
  22075879.852                                    22075867.793    -8116972.177 7
  -6314806.47646        45.200          38.100
  20531125.281                                    20531112.285   -17890823.650 8
 -12917452.90147        49.900          44.900
  24562900.297                                    24562890.465    -1548848.396 6
   -501312.36443        38.800          21.700
  24134330.008                                    24134319.355    -1061079.617 6
   -117770.58442        39.200          17.400
  22328319.227                                    22328308.340   -10427862.296 7
  -6949035.49345        47.500          33.700
  23193391.172                                    23193380.402     -240582.914 7
    516223.13044        44.200          27.200
  22801357.625                                    22801347.734    -9934146.663 7
  -7386196.35244        43.400          27.600
 11  1  1  0  7  0.0000000  0 10G06G14G21G19G22G27G24G18G03G09
  23439240.375                                    23439232.418    -5324745.289 6
  -1596223.04343        37.200          21.300
  20735399.203                                    20735388.434   -17574966.076 8
 -12592808.10647        51.600          42.800
  24765230.305                                                    -1121236.816 5
                        31.200
  22081554.766                                    22081542.531    -8087151.305 8
  -6291569.44446        49.200          39.500
  20536591.383                                    20536577.859   -17862100.803 8
 -12895071.46547        52.200          44.900
  24573254.891                                    24573246.523    -1494429.337 6
   -458907.91343        38.400          22.200
  24115229.516                                    24115220.211    -1161446.756 6
   -195978.69442        37.900          17.400
  22341996.094                                    22341984.211   -10355992.844 8
  -6893033.33845        48.400          33.300
  23211118.094                                    23211108.848     -147416.998 7
    588819.92144        42.000          26.300
  22804222.039                                    22804212.852    -9919090.672 7
  -7374464.38344        43.400          27.700
 11  1  1  0  7 30.0000000  0 10G06G14G21G19G22G27G24G18G03G09
  23456902.227                                    23456892.922    -5231937.500 6
  -1523905.28643        38.700          20.900
  20727057.625                                    20727046.797   -17618801.944 8
 -12626965.91647        51.200          42.900
  24786005.383                                                    -1012083.922 5
                        33.200
  22087334.836                                    22087322.191    -8056776.262 7
  -6267900.57346        44.700          38.300
  20542117.313                                    20542103.906   -17833061.409 8
 -12872443.36147        49.600          45.100
  24583692.281                                    24583683.035    -1439585.773 6
   -416172.68643        38.800          20.400
  24096147.797                                    24096140.777    -1261714.438 5
   -274109.32742        35.700          16.300
  22355707.219                                    22355694.926   -10283940.442 8
  -6836888.59345        48.100          34.200
  23228892.625                                    23228883.379      -54017.820 7
    661598.50144        42.800          28.500
  22807216.992                                    22807206.633    -9903356.614 7
  -7362204.07544        44.500          28.100
 11  1  1  0  8  0.0000000  0 11G06G14G21G19G22G27G24G18G03G11G09
  23474599.453                                    23474590.793    -5138935.507 6
  -1451436.16443        38.400          21.500
  20718814.625                                    20718803.621   -17662119.576 8
 -12660719.90347        51.600          42.500
  24806800.539                                                     -902808.648 5
                        33.700
  22093222.797                                    22093211.148    -8025834.002 8
  -6243789.74146        48.000          37.600
  20547705.492                                    20547693.023   -17803691.959 8
 -12849558.06647        52.100          45.600
  24594214.469                                    24594202.645    -1384305.297 6
   -373096.97143        40.200          20.400
  24077087.969                                                    -1361866.575 5
                        34.200
  22369455.133                                    22369443.953   -10211691.499 7
  -6780590.72445        47.900          33.700
  23246710.922                                    23246702.086       39625.454 6
    734567.27544        41.100          26.700
  24054502.219                                                      506146.77415
                        34.900
  22810342.539                                    22810332.590    -9886930.144 7
  -7349404.20244        44.600          28.000
 11  1  1  0  8 30.0000000  0 11G06G14G21G19G22G27G24G18G03G11G09
  23492330.969                                    23492322.953    -5045752.666 5
  -1378826.17043        35.900          20.100
  20710668.195                                    20710657.250   -17704927.738 8
 -12694076.89747        51.100          42.700
  24827615.453                                                     -793422.208 5
                        34.600
  22099215.375                                    22099204.840    -7994335.510 7
  -6219245.46446        47.900          37.700
  20553356.102                                    20553342.285   -17774002.246 8
 -12826423.23247        52.600          45.100
  24604811.859                                    24604802.555    -1328598.977 6
   -329689.36943        39.600          22.200
  24058053.195                                                    -1461910.883 6
                        38.700
  22383239.648                                    22383228.000   -10139256.114 8
  -6724147.57745        48.000          32.800
  23264575.063                                    23264566.461      133500.021 7
    807716.25744        42.300          27.200
  24035577.539                                                      406688.785 6
                        36.600
  22813598.195                                    22813588.832    -9869821.415 7
  -7336072.71844        45.000          29.400
 11  1  1  0  9  0.0000000  0 10G06G14G19G22G27G24G18G03G11G09
  23510101.656                                    23510090.945    -4952379.219 6
  -1306067.71443        36.900          21.300
  20702621.367                                    20702610.422   -17747213.923 8
 -12727027.14447        51.000          42.500
  22105318.148                                    22105306.031    -7962270.355 7
  -6194259.66746        43.500          37.800
  20559068.375                                    20559055.320   -17743981.377 8
 -12803030.34247        49.800          45.300
  24615495.469                                    24615486.633    -1272456.820 6
   -285942.24643        38.700          21.100
  24039037.594                                    24039028.406    -1561833.586 6
   -338778.19353        37.600          18.600
  22397061.203                                    22397049.496   -10066623.393 8
  -6667550.64845        48.900          33.400
  23282484.242                                    23282475.875      227614.874 6
    881052.50244        41.400          26.400
  24016693.172                                                      307460.109 5
                        32.900
  22816987.141                                    22816975.609    -9852018.987 7
  -7322200.70644        45.800          27.200
 11  1  1  0  9 30.0000000  0 10G06G14G19G22G27G24G18G03G11G09
  23527901.055                                    23527892.160    -4858835.779 6
  -1233176.73343        37.300          20.600
  20694671.461                                    20694660.047   -17788995.065 8
 -12759583.87447        51.800          43.100
  22111525.344                                    22111512.348    -7929657.765 8
  -6168847.25846        48.800          38.000
  20564841.047                                    20564828.051   -17713647.581 8
 -12779393.61147        52.900          45.900
  24626259.992                                    24626249.516    -1215898.573 6
   -241870.92343        39.700          21.500
  24020042.547                                    24020034.766    -1661650.846 6
   -416557.84043        39.600          21.300
  22410916.711                                    22410905.590    -9993812.108 8
  -6610814.58945        48.400          33.200
  23300436.227                                    23300427.391      321948.837 7
    954559.44344        42.600          26.900
  23997851.852                                                      208445.124 5
                        31.300
  22820502.875                                    22820492.398    -9833541.711 7
  -7307802.82644        44.900          26.600
 11  1  1  0 10  0.0000000  0  9G06G14G19G22G27G24G18G03G09
  23545735.633                                    23545726.621    -4765117.334 6
  -1160149.37743        38.700          20.100
  20686818.367                                    20686807.188   -17830262.050 8
 -12791739.95247        51.500          42.400
  22117835.898                                    22117823.664    -7896490.338 8
  -6143002.52946        48.000          37.400
  20570673.828                                    20570659.895   -17682992.937 8
 -12755506.86847        52.300          45.800
  24637103.102                                    24637092.684    -1158917.415 6
   -197469.94743        40.100          21.700
  24001070.070                                    24001061.410    -1761352.473 6
   -494247.40143        40.400          21.700
  22424807.438                                    22424796.609    -9920814.264 7
  -6553933.15445        47.800          33.500
  23318430.461                                    23318421.508      416507.363 7
   1028241.39644        43.000          25.600
  22824148.320                                    22824137.609    -9814381.297 7
  -7292872.60244        45.200          26.400
 11  1  1  0 10 30.0000000  0  9G06G14G19G22G27G24G18G03G09
  23563603.406                                    23563593.633    -4671225.898 5
  -1086987.25543        35.700          20.100
  20679063.055                                    20679052.344   -17871014.107 8
 -12823494.78647        51.400          42.900
  22124254.359                                    22124241.246    -7862769.311 8
  -6116726.42146        49.700          38.300
  20576568.641                                    20576555.176   -17652017.594 8
 -12731370.23447        52.800          45.000
  24648023.102                                    24648015.262    -1101514.567 5
   -152740.44843        33.700          19.000
  23982119.727                                    23982112.063    -1860936.141 6
   -571845.02343        40.500          22.500
  22438734.008                                    22438722.887    -9847630.410 8
  -6496906.76645        48.700          33.200
  23336466.703                                    23336457.223      511287.697 6
   1102096.20244        41.600          26.100
  22827925.063                                    22827914.410    -9794537.732 7
  -7277410.06844        44.400          27.200
 11  1  1  0 11  0.0000000  0  9G06G14G19G22G27G24G18G03G09
  23581500.133                                    23581492.879    -4577163.278 5
  -1013691.72843        35.900          19.900
  20671406.547                                    20671395.777   -17911249.163 8
 -12854846.77147        51.400          42.800
  22130775.977                                    22130763.273    -7828494.886 7
  -6090019.09146        44.300          37.900
  20582525.969                                    20582510.863   -17620720.986 8
 -12706983.26647        50.500          45.300
  24659028.086                                    24659019.074    -1043690.688 6
   -107682.87943        36.700          18.600
  23963193.492                                    23963184.891    -1960398.550 6
   -649348.16343        39.500          21.500
  22452696.445                                    22452684.973    -9774259.970 8
  -6439734.99645        48.300          32.900
  23354544.992                                    23354535.102      606288.285 7
   1176122.60344        43.600          26.000
  22831830.398                                    22831820.801    -9774010.460 7
  -7261414.79144        44.100          27.900
 11  1  1  0 11 30.0000000  0 10G06G14G19G22G27G24G18G03G11G09
  23599432.813                                    23599423.918    -4482936.102 6
   -940267.96843        36.900          19.000
  20663848.039                                    20663836.859   -17950970.417 8
 -12885798.37147        51.500          42.900
  22137401.922                                    22137389.863    -7793672.389 8
  -6062884.69746        49.200          37.600
  20588539.906                                    20588526.441   -17589107.631 8
 -12682349.48747        52.800          45.500
  24670111.266                                    24670100.906     -985451.268 6
    -62301.48043        38.000          20.900
  23944288.336                                    23944279.910    -2059741.708 6
   -726758.38743        39.500          18.300
  22466691.711                                    22466681.293    -9700707.517 7
  -6382421.40145        47.500          32.800
  23372662.719                                    23372653.590      701502.233 7
   1250315.26144        42.800          26.400
  23922919.922                                                      376167.94815
                        34.800
  22835866.102                                    22835855.742    -9752804.273 7
  -7244890.47544        43.900          27.000
 11  1  1  0 12  0.0000000  0 10G06G14G19G22G27G24G18G03G11G09
  23617395.727                                    23617385.484    -4388544.330 6
   -866715.95843        36.800          18.600
  20656387.531                                    20656376.879   -17990174.680 8
 -12916347.13147        51.400          43.100
  22144132.836                                    22144120.426    -7758300.842 8
  -6035322.45446        49.700          37.700
  20594616.852                                    20594603.211   -17557175.288 8
 -12657467.13347        52.600          45.000
  24681272.914                                    24681262.906     -926795.579 6
    -16595.76143        37.700          20.600
  23925408.797                                    23925397.910    -2158960.879 6
   -804072.00143        40.300          18.600
  22480723.430                                    22480713.070    -9626971.064 7
  -6324964.43345        46.400          33.000
  23390822.742                                    23390812.559      796928.638 7
   1324673.50544        43.700          28.300
  23904295.164                                                      278299.374 5
                        33.900
  22840031.891                                    22840021.355    -9730916.684 7
  -7227835.19944        43.800          26.900
 11  1  1  0 12 30.0000000  0 10G06G14G19G22G27G24G18G03G11G09
  23635387.273                                    23635379.082    -4293991.252 5
   -793038.21843        34.000          18.600
  20649026.039                                    20649015.035   -18028861.168 8
 -12946492.43847        51.200          43.500
  22150969.430                                    22150956.141    -7722381.266 8
  -6007333.19346        50.500          37.600
  20600753.547                                    20600740.258   -17524924.300 8
 -12632336.49847        52.100          44.300
  24692512.859                                    24692503.906     -867725.468 6
     29432.94643        36.200          19.000
  23906550.250                                    23906540.828    -2258054.361 6
   -881287.61643        38.700          18.600
  22494790.070                                    22494779.066    -9553051.516 7
  -6267364.79045        47.600          32.300
  23409022.273                                    23409012.090      892564.892 7
   1399195.23744        42.600          25.300
  23885715.148                                                      180667.85615
                        32.400
  22844326.281                                    22844315.922    -9708348.282 7
  -7210249.41944        43.200          27.300
 11  1  1  0 13  0.0000000  0 10G06G14G19G22G27G24G18G03G11G09
  23653410.453                                    23653402.203    -4199279.875 6
   -719237.19843        37.200          21.100
  20641762.289                                    20641751.578   -18067030.535 8
 -12976234.78147        51.000          43.400
  22157907.188                                    22157894.953    -7685916.248 7
  -5978918.90646        46.900          37.500
  20606951.141                                    20606937.852   -17492356.533 8
 -12606959.02547        51.900          44.500
  24703833.180                                    24703822.820     -808244.035 6
     75782.17643        39.000          19.600
  23887718.094                                    23887708.027    -2357021.299 6
   -958404.70843        39.700          19.600
  22508891.008                                    22508880.238    -9478950.398 7
  -6209623.68045        47.200          32.300
  23427259.234                                    23427250.047      988406.580 6
   1473877.07744        41.900          26.000
  23867177.477                                                       83274.56114
                        29.600
  22848749.992                                    22848739.574    -9685100.984 7
  -7192134.65644        43.400          27.400
 11  1  1  0 13 30.0000000  0 10G06G14G19G22G27G24G18G03G11G09
  23671463.453                                    23671454.559    -4104412.855 6
   -645314.91443        37.400          20.400
  20634598.117                                    20634586.879   -18104681.383 8
 -13005573.08447        50.800          42.800
  22164950.352                                    22164937.473    -7648906.712 8
  -5950080.28946        49.400          37.300
  20613209.195                                    20613195.672   -17459471.697 8
 -12581334.47247        52.200          44.700
  24715227.680                                    24715219.664     -748352.298 6
    122451.10643        37.200          19.000
  23868908.141                                    23868899.832    -2455859.199 6
  -1035421.17443        36.200          20.600
  22523026.875                                    22523015.461    -9404667.682 8
  -6151741.02545        48.100          33.000
  23445536.086                                    23445525.844     1084451.564 6
   1548717.29743        41.700          23.400
  23848690.055                                                      -13877.51714
                        28.900
  22853303.242                                    22853292.648    -9661174.800 7
  -7173490.84444        43.500          26.600
 11  1  1  0 14  0.0000000  0 10G06G14G19G22G27G24G18G03G11G09
  23689545.797                                    23689535.145    -4009393.717 6
   -571273.98943        40.200          19.900
  20627532.227                                    20627520.520   -18141813.792 8
 -13034507.41747        50.900          42.900
  22172095.531                                    22172083.531    -7611355.018 8
  -5920819.24946        48.900          37.600
  20619526.828                                    20619513.246   -17426271.015 8
 -12555463.80947        52.000          44.900
  24726704.313                                    24726694.598     -688052.490 6
    169437.99143        36.900          19.300
  23850126.250                                    23850117.590    -2554566.648 6
  -1112336.00343        38.700          21.700
  22537197.172                                    22537185.230    -9330205.129 7
  -6093718.26845        47.500          32.700
  23463850.695                                    23463841.918     1180695.944 6
   1623712.90244        39.200          24.200
  23830251.164                                                     -110786.59215
                        33.400
  22857985.063                                    22857974.879    -9636571.314 6
  -7154319.27444        41.900          26.200
 11  1  1  0 14 30.0000000  0 10G06G14G19G22G27G24G18G03G11G09
  23707654.547                                    23707645.359    -3914223.531 6
   -497115.43143        39.000          20.600
  20620565.023                                    20620553.551   -18178425.349 8
 -13063035.88747        50.800          43.100
  22179344.898                                    22179332.723    -7573260.534 8
  -5891135.21646        49.400          37.300
  20625904.906                                    20625891.852   -17392753.127 8
 -12529345.98647        51.600          44.700
  24738254.430                                    24738246.883     -627344.748 5
    216742.72743        33.800          20.400
  23831369.578                                    23831360.156    -2653139.984 6
  -1189146.30043        39.300          22.500
  22551399.836                                    22551389.125    -9255561.263 7
  -6035554.22945        46.100          31.900
  23482202.211                                    23482194.078     1277138.602 6
   1698862.98744        40.400          24.100
  23811861.430                                                     -207448.730 6
                        36.700
  22862796.227                                    22862785.281    -9611289.164 7
  -7134618.89544        43.300          27.000
 11  1  1  0 15  0.0000000  0 10G06G14G19G22G27G24G18G03G11G09
  23725793.398                                    23725784.621    -3818906.655 6
   -422842.57843        39.500          20.100
  20613696.406                                    20613685.344   -18214517.696 8
 -13091159.77747        50.700          42.900
  22186697.516                                    22186684.461    -7534627.247 8
  -5861031.39046        50.800          37.400
  20632342.758                                    20632329.762   -17358920.869 8
 -12502983.18047        51.100          44.800
  24749885.102                                    24749876.793     -566233.351 6
    264362.01543        37.500          21.500
  23812637.258                                    23812626.898    -2751579.361 6
  -1265852.25543        38.300          21.800
  22565639.383                                    22565628.672    -9180739.021 7
  -5977251.18545        47.900          32.300
  23500592.492                                    23500582.367     1373774.286 6
   1774163.54243        41.100          22.800
  23793510.883                                                     -303863.32715
                        33.100
  22867734.477                                    22867725.055    -9585331.640 6
  -7114392.25744        41.700          26.000
 11  1  1  0 15 30.0000000  0 10G06G14G19G22G27G24G18G03G11G09
  23743960.008                                    23743950.879    -3723445.605 6
   -348457.37943        37.900          19.300
  20606927.367                                    20606916.188   -18250089.529 8
 -13118878.08647        51.000          43.500
  22194150.313                                    22194137.902    -7495456.098 8
  -5830508.40046        48.200          36.500
  20638841.156                                    20638827.809   -17324774.189 8
 -12476375.37947        52.100          44.700
  24761592.242                                    24761581.355     -504719.290 6
    312295.06943        37.500          21.300
  23793929.555                                    23793919.020    -2849881.984 6
  -1342451.57543        37.500          20.600
  22579910.992                                    22579900.164    -9105738.583 7
  -5918809.29045        46.500          30.800
  23519018.281                                    23519008.625     1470600.719 7
   1849612.68644        42.200          25.600
  23775211.055                                                     -400027.18615
                        31.800
  22872804.109                                    22872792.930    -9558698.586 7
  -7093639.18644        44.500          28.000
 11  1  1  0 16  0.0000000  0  9G06G14G19G22G27G24G18G03G09
  23762150.422                                    23762143.051    -3627843.303 5
   -273962.07142        35.000          16.300
  20600257.602                                    20600246.773   -18285140.701 8
 -13146190.66647        50.900          43.500
  22201707.188                                    22201694.602    -7455748.577 8
  -5799567.48946        50.200          37.600
  20645398.453                                    20645385.398   -17290313.415 8
 -12449522.82547        51.800          44.500
  24773374.133                                    24773364.535     -442804.526 6
    360540.34843        39.800          22.200
  23775249.336                                    23775239.797    -2948046.037 6
  -1418942.98143        37.800          20.100
  22594217.477                                    22594205.652    -9030560.539 7
  -5860228.97845        46.900          31.500
  23537479.688                                    23537468.977     1567614.578 7
   1925207.88844        42.000          25.100
  22877999.211                                    22877990.141    -9531390.715 7
  -7072360.32744        42.300          27.900
 11  1  1  0 16 30.0000000  0  9G06G14G19G22G27G24G18G03G09
  23780371.469                                    23780362.164    -3532101.250 6
   -199357.85742        37.100          16.300
  20593686.656                                    20593675.418   -18319669.348 8
 -13173096.09347        50.600          42.600
  22209364.977                                    22209352.566    -7415505.386 8
  -5768209.16846        49.400          36.800
  20652016.164                                    20652002.875   -17255537.940 8
 -12422425.04647        52.300          44.100
  24785231.328                                    24785220.910     -380489.783 6
    409097.32943        39.600          19.900
  23756597.523                                    23756586.871    -3046068.786 6
  -1495324.27943        39.500          21.300
  22608556.977                                    22608545.621    -8955204.599 7
  -5801510.07745        45.900          31.100
  23555974.297                                    23555965.988     1664813.940 6
   2000947.62144        41.100          25.600
  22883324.305                                    22883314.648    -9503408.037 6
  -7050555.63644        41.800          26.700
 11  1  1  0 17  0.0000000  0  9G06G14G19G22G27G24G18G03G09
  23798613.969                                    23798607.008    -3436224.117 5
   -124648.50642        35.000          17.400
  20587215.422                                    20587204.008   -18353677.049 8
 -13199595.58747        51.000          42.500
  22217124.234                                    22217111.824    -7374730.378 8
  -5736436.45246        49.600          36.600
  20658693.445                                    20658680.332   -17220450.168 8
 -12395083.92547        52.700          44.500
  24797165.953                                    24797155.301     -317778.638 6
    457963.15543        40.200          21.300
  23737971.703                                    23737961.344    -3143949.891 6
  -1571595.21743        38.900          21.100
  22622929.836                                    22622918.715    -8879673.076 7
  -5742654.35145        46.700          30.000
  23574506.367                                    23574496.242     1762193.654 6
   2076827.89443        41.300          23.600
  22888777.656                                    22888766.418    -9474753.269 7
  -7028227.21044        42.500          25.000
 11  1  1  0 17 30.0000000  0  9G06G14G19G22G27G24G18G03G09
  23816886.891                                    23816877.293    -3340213.841 6
    -49835.31543        38.400          19.900
  20580843.430                                    20580832.602   -18387162.356 8
 -13225688.01447        51.100          43.200
  22224983.891                                    22224971.949    -7333423.594 7
  -5704249.33046        47.800          36.400
  20665429.773                                    20665416.484   -17185050.014 8
 -12367499.37947        53.000          44.500
  24809172.117                                    24809163.750     -254672.368 6
    507136.95443        37.300          20.600
  23719372.359                                    23719362.293    -3241686.258 6
  -1647753.38143        39.500          19.300
  22637336.781                                    22637325.133    -8803965.878 7
  -5683661.72644        46.700          29.700
  23593070.305                                    23593061.938     1859752.311 6
   2152847.60843        40.400          22.900
  22894358.664                                    22894348.422    -9445426.478 6
  -7005375.16344        41.500          26.900
 11  1  1  0 18  0.0000000  0  9G06G14G19G22G27G24G18G03G09
  23835179.156                                    23835171.258    -3244073.580 6
     25079.18742        36.800          17.800
  20574570.711                                    20574559.590   -18420125.802 8
 -13251373.80647        49.700          42.800
  22232945.883                                    22232934.234    -7291587.054 8
  -5671649.42946        49.500          37.600
  20672225.359                                    20672212.129   -17149338.088 8
 -12339671.89747        52.200          44.200
  24821258.461                                    24821247.164     -191172.991 6
    556617.04343        39.500          22.000
  23700800.750                                    23700791.504    -3339276.323 6
  -1723797.48543        38.700          21.300
  22651777.172                                    22651764.703    -8728084.065 7
  -5624533.02544        47.000          29.900
  23611669.008                                    23611659.820     1957485.979 6
   2229003.71443        41.100          22.900
  22900067.055                                    22900056.871    -9415429.139 7
  -6982000.61144        43.700          26.500
 11  1  1  0 18 30.0000000  0 10G06G14G19G22G27G24G18G03G11G09
  23853498.758                                    23853491.270    -3147804.701 6
    100093.83042        36.700          17.400
  20568397.625                                    20568386.445   -18452564.573 8
 -13276650.76247        50.200          43.400
  22241007.656                                    22240995.012    -7249221.468 8
  -5638637.30446        49.400          37.500
  20679080.680                                    20679067.215   -17113313.362 8
 -12311600.66947        52.300          44.200
  24833414.781                                    24833405.770     -127281.208 6
    606402.82243        37.900          20.100
  23682257.414                                    23682249.516    -3436716.635 6
  -1799724.95543        39.400          21.300
  22666249.406                                    22666238.051    -8652027.151 7
  -5565267.90245        46.800          30.700
  23630300.844                                    23630290.895     2055392.955 6
   2305294.91543        41.300          21.500
  23666440.734                                                      471057.09215
                        35.600
  22905902.422                                    22905892.590    -9384760.706 7
  -6958103.10844        42.200          27.000
 11  1  1  0 19  0.0000000  0 10G06G14G19G22G27G24G18G03G11G09
  23871843.602                                    23871834.473    -3051412.516 6
    175204.63643        38.900          18.600
  20562324.203                                    20562312.613   -18484481.037 8
 -13301520.71847        48.800          43.200
  22249169.547                                    22249157.371    -7206331.484 8
  -5605216.52746        49.300          36.800
  20685994.508                                    20685981.160   -17076979.649 8
 -12283288.67547        52.700          44.200
  24845647.594                                    24845637.645      -63001.454 5
    656490.97843        34.800          19.000
  23663744.266                                    23663735.254    -3534007.814 6
  -1875536.18343        39.900          20.900
  22680756.438                                    22680743.969    -8575798.098 7
  -5505868.65745        46.400          30.400
  23648963.000                                    23648953.871     2153468.012 6
   2381716.95643        40.300          22.200
  23648488.977                                    23648476.391      376714.563 6
    422532.16053        36.300          19.000
  22911865.820                                    22911856.398    -9353424.841 7
  -6933685.55544        42.400          27.700
 11  1  1  0 19 30.0000000  0 10G06G14G19G22G27G24G18G03G11G09
  23890208.734                                    23890199.840    -2954897.883 6
    250410.81542        37.700          17.400
  20556350.945                                    20556338.887   -18515873.246 8
 -13325982.16547        48.800          43.500
  22257431.039                                    22257418.980    -7162915.926 8
  -5571386.24246        48.500          37.100
  20692967.820                                    20692954.531   -17040335.198 8
 -12254734.54847        52.600          44.400
  24857954.406                                    24857943.461        1666.578 5
    706881.67143        34.300          18.300
  23645259.813                                    23645249.980    -3631145.877 6
  -1951228.15343        39.600          21.500
  22695294.000                                    22695282.410    -8499395.408 7
  -5446334.11244        45.000          29.400
  23667657.313                                    23667649.355     2251709.999 6
   2458269.16243        39.500          20.100
  23630588.961                                    23630576.844      282642.355 6
    349229.25542        36.500          17.400
  22917954.227                                    22917944.980    -9321420.558 6
  -6908747.13044        40.700          24.500
 11  1  1  0 20  0.0000000  0 10G06G14G19G22G27G24G18G03G11G09
  23908600.102                                    23908588.746    -2858264.072 6
    325709.84042        39.500          17.400
  20550476.375                                    20550465.605   -18546741.148 8
 -13350035.05947        49.500          43.400
  22265792.727                                    22265779.613    -7118977.564 8
  -5537148.55946        48.900          36.700
  20700000.461                                    20699986.820   -17003380.978 8
 -12225939.05847        52.600          43.900
  24870334.641                                    24870322.641       66720.167 6
    757572.80342        36.000          17.400
  23626805.195                                    23626795.129    -3728129.468 6
  -2026799.69443        40.800          22.800
  22709866.219                                    22709854.395    -8422820.714 7
  -5386665.52445        45.400          30.300
  23686383.930                                    23686374.215     2350115.015 6
   2534948.34343        38.400          19.600
  23612738.953                                    23612727.656      188842.485 6
    276138.45942        36.300          16.900
  22924173.164                                    22924162.922    -9288749.514 7
  -6883289.16744        42.800          26.000
 11  1  1  0 20 30.0000000  0 10G06G14G19G22G27G24G18G03G11G09
  23927008.672                                    23926999.719    -2761514.096 6
    401099.38442        38.300          17.800
  20544702.000                                    20544691.113   -18577084.712 8
 -13373679.38047        49.600          43.200
  22274253.250                                    22274240.840    -7074518.506 8
  -5502505.15946        49.200          37.100
  20707090.781                                    20707077.844   -16966117.472 8
 -12196902.54247        52.800          44.500
  24882785.078                                    24882775.129      132156.820 5
    808562.35742        34.800          16.900
  23608379.477                                    23608369.352    -3824956.780 6
  -2102249.50243        41.100          22.200
  22724470.359                                    22724458.828    -8346075.024 7
  -5326863.68044        44.700          29.900
  23705138.977                                    23705130.082     2448680.030 6
   2611752.24942        37.500          17.800
  23594940.945                                    23594930.645       95317.402 5
    203261.75942        32.200          13.900
  22930515.406                                    22930505.926    -9255412.793 7
  -6857312.51444        42.000          26.600
 11  1  1  0 21  0.0000000  0 10G06G14G19G22G27G24G18G03G11G09
  23945441.578                                    23945432.215    -2664651.447 6
    476576.77443        37.700          18.600
  20539027.406                                    20539016.344   -18606904.271 8
 -13396915.37347        50.100          43.100
  22282811.344                                    22282799.285    -7029540.844 8
  -5467457.63146        48.500          36.000
  20714240.445                                    20714227.273   -16928546.248 8
 -12167626.26647        52.700          44.100
  24895309.828                                    24895300.055      197974.081 6
    859848.67942        36.300          15.600
  23589981.805                                    23589973.789    -3921626.426 6
  -2177576.50343        40.100          22.200
  22739107.430                                    22739096.074    -8269159.296 7
  -5266929.34445        46.500          30.500
  23723924.758                                    23723915.980     2547401.312 6
   2688677.95143        36.900          18.300
  23577194.039                                    23577186.609        2068.511 5
    130600.39742        30.800          14.800
  22936985.617                                    22936976.781    -9221412.437 6
  -6830818.69144        41.900          26.900
 11  1  1  0 21 30.0000000  0 10G06G14G19G22G27G24G18G03G11G09
  23963895.516                                    23963886.094    -2567676.168 6
    552141.89242        36.100          16.900
  20533453.867                                    20533442.219   -18636196.835 8
 -13419740.73747        51.300          43.700
