     2.11           OBSERVATION DATA    G (GPS)             RINEX VERSION / TYPE
teqc  2009Mar23     WCDA Operator       20100102 00:08:53UTCPGM / RUN BY / DATE
Solaris x86 5.10|AMD64|cc SC5.8 -xarch=amd64|=+|=+          COMMENT
teqc  2009Mar23     WCDA Operator       20100102 00:08:49UTCCOMMENT
teqc  2009Mar23     WCDA Operator       20100102 00:08:42UTCCOMMENT
teqc  2009Mar23     WCDA Operator       20100101 01:07:04UTCCOMMENT
teqc  2009Mar23     WCDA Operator       20100101 01:07:04UTCCOMMENT
teqc  2009Mar23     WCDA Operator       20100101 01:07:04UTCCOMMENT
CONTACT gps@pgc.nrcan.gc.ca FOR ADDITIONAL INFORMATION      COMMENT
    P1 =    P1  TurboRogue; =    Y1  Benchmark              COMMENT
    L1 = L1(CA)                                             COMMENT
    P2 =    P2  TurboRogue; =    Y2  Benchmark              COMMENT
    L2 = L2(P2) TurboRogue; = L2(Y2) Benchmark              COMMENT
 SNR is mapped to RINEX snr flag value [0-9]                COMMENT
  L1 & L2: min(max(int(snr_dBHz/6), 0), 9)                  COMMENT
teqc windowed: start @ 2010 Jan  1 00:00:00.000             COMMENT
teqc windowed:  end  @ 2010 Jan  1 00:59:59.000             COMMENT
teqc windowed: start @ 2010 Jan  1 00:00:00.000             COMMENT
teqc windowed:  end  @ 2010 Jan  1 00:59:59.000             COMMENT
teqc windowed: start @ 2010 Jan  1 00:00:00.000             COMMENT
teqc windowed:  end  @ 2010 Jan  1 00:59:59.000             COMMENT
teqc windowed: start @ 2010 Jan  1 00:00:00.000             COMMENT
teqc windowed:  end  @ 2010 Jan  1 23:59:59.000             COMMENT
albh  WCDA-ACP   927000   Victoria BC Canada                MARKER NAME
40129M003                                                   MARKER NUMBER
PGC-WCDA            GEOL. SURV. CANADA                      OBSERVER / AGENCY
1113                AOA BENCHMARK ACT   3.3.32.2N lk 99/07/2REC # / TYPE / VERS
99442               AOAD/M_T        SCIS                    ANT # / TYPE
 -2341332.8840 -3539049.5090  4745791.3600                  APPROX POSITION XYZ
        0.1000        0.0000        0.0000                  ANTENNA: DELTA H/E/N
     1     1                                                WAVELENGTH FACT L1/2
     7    C1    P1    P2    L1    L2    S1    S2            # / TYPES OF OBSERV
teqc windowed: start @ 2010 Jan  1 00:00:00.000             COMMENT
teqc windowed:  end  @ 2010 Jan  1 23:59:59.000             COMMENT
  2010     1     1     0     0    0.0000000     GPS         TIME OF FIRST OBS
                                                            END OF HEADER
 10  1  1  0  0  0.0000000  0 10G14G21G 6G27G18G22G 3G26G 9G19
  22293533.826    22293533.564    22293531.427   117153336.645 6  91288325.558 4
        37.000          28.100
  22125900.220    22125899.684    22125896.406   116272437.382 6  90601911.755 4
        37.000          27.100
  21509652.809    21509652.567    21509650.925   113034022.200 7  88078471.400 6
        42.000          37.000
  24132097.173    24132096.748    24132096.155   126815026.663 3  98816910.866 2
        22.100          17.000
  21212925.234    21212924.778    21212921.721   111474717.897 7  86863427.205 6
        44.000          39.000
  20301960.177    20301959.917    20301955.600   106687587.688 8  83133202.447 8
        48.000          50.000
  21471283.788    21471283.316    21471281.876   112832371.478 7  87921329.738 5
        42.000          35.100
  20634541.815    20634541.693    20634539.567   108435281.370 7  84495033.997 6
        45.000          41.000
  23443359.295    23443359.292    23443357.414   123195707.698 4  95996662.575 2
        24.900          17.800
  22076756.898    22076755.535    22076752.382   116014216.196 7  90400704.992 5
        42.000          35.100
 10  1  1  0  0 30.0000000  0 10G14G21G 6G27G18G22G 3G26G 9G19
  22275719.179    22275718.744    22275716.776   117059719.745 6  91215377.358 4
        36.000          29.000
  22140810.943    22140810.454    22140807.470   116350793.993 6  90662968.859 4
        37.000          25.900
  21516680.073    21516679.731    21516677.988   113070950.375 7  88107246.591 6
        42.000          37.000
  24128793.075    24128792.665    24128791.823   126797662.790 3  98803380.613 2
        23.000          17.800
  21222619.644    21222619.059    21222616.116   111525661.638 7  86903123.637 6
        44.000          39.000
  20300612.317    20300612.129    20300607.818   106680504.838 8  83127683.354 8
        48.000          49.000
  21477581.392    21477580.940    21477579.707   112865465.946 7  87947117.636 6
        42.000          36.000
  20621844.618    20621844.585    20621842.518   108368558.287 7  84443042.008 6
        45.000          41.000
  23432224.780    23432224.437    23432222.836   123137195.660 3  95951068.826 3
        23.000          19.900
  22068931.635    22068930.533    22068927.109   115973094.329 7  90368661.984 5
        42.000          35.100
 10  1  1  0  1  0.0000000  0 10G14G21G 6G27G18G22G 3G26G 9G19
  22257967.849    22257967.618    22257965.561   116966437.035 6  91142689.567 4
        37.000          29.000
  22155781.182    22155780.599    22155777.448   116429462.833 6  90724269.251 4
        37.000          27.100
  21523808.357    21523808.051    21523806.635   113108411.096 7  88136436.762 6
        42.000          36.000
  24125581.073    24125580.438    24125579.325   126780784.032 3  98790228.362 2
        21.100          15.100
  21232366.973    21232366.353    21232363.466   111576884.503 7  86943037.559 6
        44.000          39.000
  20299337.262    20299336.982    20299332.600   106673803.710 8  83122461.707 8
        48.000          50.000
  21483989.781    21483989.293    21483988.209   112899142.731 7  87973359.293 6
        42.000          36.000
  20609266.304    20609266.195    20609264.086   108302458.334 7  84391535.577 6
        45.000          41.000
  23421192.012    23421191.647    23421190.463   123079219.778 3  95905892.845 2
        23.000          17.000
  22061209.479    22061208.254    22061205.317   115932514.775 7  90337041.569 6
        42.000          36.000
 10  1  1  0  1 30.0000000  0 10G14G21G 6G27G18G22G 3G26G 9G19
  22240280.281    22240279.627    22240277.549   116873485.742 6  91070260.022 4
        37.000          29.000
  22170809.855    22170809.075    22170806.072   116508438.067 6  90785808.392 4
        37.000          25.900
  21531036.917    21531036.701    21531035.409   113146398.020 7  88166036.957 6
        42.000          37.000
  24122460.175    24122460.135    24122458.981   126764386.237 3  98777450.872 2
        22.100          16.100
  21242166.221    21242165.706    21242162.755   111628380.525 7  86983164.337 6
        43.000          39.000
  20298133.692    20298133.372    20298128.969   106667478.913 8  83117533.306 8
        48.000          49.000
  21490508.152    21490507.651    21490506.230   112933396.101 7  88000050.227 6
        42.000          36.000
  20596806.174    20596805.985    20596803.970   108236979.083 7  84340512.805 6
        45.000          41.000
  23410261.136    23410260.961    23410259.474   123021778.090 3  95861133.119 3
        21.100          19.300
  22053589.839    22053588.608    22053585.597   115892474.027 7  90305840.994 5
        42.000          35.100
 10  1  1  0  2  0.0000000  0 10G14G21G 6G27G18G22G 3G26G 9G19
  22222656.013    22222655.659    22222653.508   116780870.622 6  90998092.430 4
        37.000          29.000
  22185896.741    22185896.120    22185892.988   116587720.876 6  90847587.196 4
        37.000          24.900
  21538366.356    21538365.992    21538364.617   113184912.036 7  88196047.875 6
        42.000          37.000
  24119432.679    24119432.288    24119430.365   126748472.710 3  98765050.749 2
        23.000          16.100
  21252017.989    21252017.375    21252014.302   111680150.837 7  87023504.847 6
        43.000          39.000
  20297002.027    20297001.756    20296997.276   106661532.041 8  83112899.389 8
        48.000          49.000
  21497136.137    21497135.699    21497134.315   112968226.328 7  88027190.667 6
        42.000          36.000
  20584464.649    20584464.523    20584462.677   108172124.668 7  84289976.923 6
        45.000          41.000
  23399433.449    23399432.923    23399431.363   122964875.565 3  95816793.517 3
        23.800          19.300
  22046073.844    22046072.581    22046069.337   115852975.855 7  90275063.208 6
        42.000          36.000
 10  1  1  0  2 30.0000000  0 10G14G21G 6G27G18G22G 3G26G 9G19
  22205097.111    22205096.784    22205094.580   116688598.421 6  90926192.042 4
        37.000          29.000
  22201043.032    22201042.471    22201038.941   116667314.966 6  90909608.573 4
        36.000          24.900
  21545796.407    21545795.941    21545794.356   113223956.444 7  88226472.081 6
        42.000          37.000
  24116497.684    24116497.249    24116495.702   126733049.025 3  98753032.305 2
        23.000          17.000
  21261922.311    21261921.786    21261918.791   111732199.054 7  87064061.905 6
        44.000          39.000
  20295943.175    20295942.896    20295938.385   106655967.787 8  83108563.617 8
        48.000          49.000
  21503874.501    21503873.935    21503872.758   113003636.806 7  88054783.250 6
        42.000          36.000
  20572243.572    20572243.355    20572241.462   108107902.260 7  84239933.505 6
        45.000          41.000
  23388709.751    23388708.701    23388707.148   122908519.843 3  95772879.994 2
        23.800          17.800
  22038661.593    22038660.396    22038657.304   115814026.020 7  90244712.686 6
        42.000          36.000
 10  1  1  0  3  0.0000000  0 10G14G21G 6G27G18G22G 3G26G 9G19
  22187601.845    22187601.276    22187598.962   116596658.861 6  90854550.855 4
        37.000          29.000
  22216245.594    22216245.236    22216241.995   116747206.967 6  90971862.088 4
        36.000          24.900
  21553324.254    21553323.829    21553322.490   113263517.190 7  88257298.635 6
        42.000          37.000
  24113653.289    24113652.684    24113651.614   126718103.397 3  98741386.386 2
        22.100          17.800
  21271877.035    21271876.484    21271873.472   111784511.463 7  87104824.829 6
        44.000          39.000
  20294954.620    20294954.359    20294949.807   106650772.939 8  83104515.692 8
        48.000          49.000
  21510720.616    21510720.052    21510718.863   113039613.290 7  88082816.873 6
        42.000          36.000
  20560140.557    20560140.382    20560138.519   108044301.355 7  84190374.379 6
        45.000          41.000
  23378087.497    23378087.045    23378085.230   122852700.712 4  95729384.577 3
        24.900          21.100
  22031351.965    22031350.726    22031347.609   115775613.564 7  90214780.908 5
        42.000          35.100
 10  1  1  0  3 30.0000000  0 10G14G21G 6G27G18G22G 3G26G 9G19
  22170170.149    22170169.711    22170167.769   116505056.608 6  90783172.505 5
        37.000          31.000
  22231505.762    22231505.276    22231502.295   116827398.393 6  91034348.904 4
        36.000          27.100
  21560950.819    21560950.552    21560948.963   113303595.359 7  88288528.376 6
        42.000          36.000
  24110901.240    24110900.432    24110899.036   126703639.041 3  98730115.472 2
        23.000          17.800
  21281882.291    21281881.701    21281878.638   111837089.129 7  87145794.445 6
        43.000          39.000
  20294036.687    20294036.422    20294031.896   106645949.049 8  83100756.826 8
        48.000          49.000
  21517674.786    21517674.234    21517672.753   113076157.022 7  88111292.508 5
        42.000          35.100
  20548156.908    20548156.836    20548154.705   107981326.620 7  84141303.173 6
        45.000          41.000
  23367568.250    23367568.073    23367566.236   122797423.558 4  95686311.494 2
        27.100          17.800
  22024145.509    22024144.279    22024140.832   115737742.308 7  90185270.846 5
        43.000          35.100
 10  1  1  0  4  0.0000000  0 10G14G21G 6G27G18G22G 3G26G 9G19
  22152804.870    22152804.712    22152802.515   116413802.801 6  90712065.662 5
        37.000          30.100
  22246824.033    22246823.558    22246820.363   116907896.764 6  91097074.904 4
        36.000          24.900
  21568677.173    21568676.905    21568675.516   113344198.103 7  88320166.866 6
        42.000          37.000
  24108241.750    24108241.373    24108240.390   126689665.662 3  98719227.156 2
        21.100          17.000
  21291939.441    21291938.913    21291935.712   111889939.876 7  87186976.858 6
        44.000          39.000
  20293190.828    20293190.615    20293186.224   106641504.608 8  83097293.636 8
        48.000          50.000
  21524737.586    21524737.114    21524736.063   113113274.598 7  88140215.301 5
        42.000          35.100
  20536294.413    20536294.276    20536292.218   107918988.686 7  84092728.175 7
        45.000          42.000
  23357154.698    23357154.609    23357152.683   122742699.677 4  95643669.541 3
        25.900          21.100
  22017043.714    22017042.471    22017039.308   115700422.255 7  90156190.283 5
        42.000          35.100
 10  1  1  0  4 30.0000000  0 10G14G21G 6G27G18G22G 3G26G 9G19
  22135505.880    22135505.529    22135503.388   116322894.586 6  90641228.109 5
        38.000          30.100
  22262199.832    22262199.339    22262196.030   116988695.972 6  91160035.331 4
        36.000          25.900
  21576502.482    21576502.055    21576500.563   113385318.698 7  88352208.886 6
        42.000          37.000
  24105675.133    24105675.194    24105673.335   126676178.746 3  98708717.900 2
        23.000          16.100
  21302047.322    21302046.835    21302043.735   111943057.327 7  87228367.086 6
        44.000          38.000
  20292416.386    20292416.054    20292411.613   106637433.944 8  83094121.701 8
        48.000          49.000
  21531908.903    21531908.487    21531907.159   113150959.296 7  88169579.992 6
        42.000          36.000
  20524552.404    20524552.348    20524550.382   107857284.700 7  84044647.167 7
        45.000          42.000
  23346845.860    23346845.462    23346844.107   122688526.875 4  95601457.025 3
        24.900          22.100
  22010046.164    22010044.906    22010041.572   115663649.474 7  90127536.172 5
        42.000          35.100
 10  1  1  0  5  0.0000000  0 10G14G21G 6G27G18G22G 3G26G 9G19
  22118271.338    22118270.941    22118268.520   116232325.593 6  90570654.890 5
        38.000          30.100
  22277630.725    22277630.125    22277627.584   117069786.423 5  91223222.696 4
        35.100          27.100
  21584424.139    21584423.763    21584422.256   113426947.220 7  88384646.683 6
        42.000          37.000
  24103199.684    24103199.524    24103197.827   126663170.830 3  98698581.854 2
        23.800          16.100
  21312204.167    21312203.594    21312200.608   111996431.756 7  87269957.552 6
        43.000          39.000
  20291711.147    20291710.898    20291706.409   106633728.297 8  83091234.194 8
        48.000          50.000
  21539186.575    21539186.011    21539184.308   113189201.381 7  88199379.012 5
        42.000          35.100
  20512930.067    20512929.891    20512927.960   107796208.295 7  83997055.175 7
        46.000          42.000
  23336640.664    23336640.573    23336638.887   122634899.255 4  95559669.290 3
        24.900          19.300
  22003151.386    22003150.116    22003146.805   115627417.111 7  90099303.165 6
        42.000          36.000
 10  1  1  0  5 30.0000000  0 10G14G21G 6G27G18G22G 3G26G 9G19
  22101104.966    22101104.496    22101101.963   116142114.851 6  90500360.832 5
        38.000          30.100
  22293120.224    22293119.713    22293116.770   117151184.012 6  91286649.375 4
        36.000          24.900
  21592445.154    21592444.879    21592443.396   113469099.065 6  88417492.272 6
        41.000          37.000
  24100819.103    24100818.533    24100817.186   126650659.538 3  98688832.820 2
        22.100          15.100
  21322412.823    21322412.264    21322409.397   112050078.973 7  87311760.582 6
        43.000          39.000
  20291078.435    20291078.193    20291073.678   106630403.770 8  83088643.665 8
        48.000          49.000
  21546572.270    21546571.885    21546570.567   113228015.693 7  88229623.931 5
        42.000          35.100
  20501430.559    20501430.395    20501428.519   107735778.239 7  83949966.838 7
        46.000          42.000
  23326543.297    23326542.989    23326541.373   122581836.203 4  95518321.474 3
        24.900          21.100
  21996363.035    21996361.549    21996358.296   115591742.724 7  90071504.946 6
        43.000          36.000
 10  1  1  0  6  0.0000000  0 10G14G21G 6G27G18G22G 3G26G 9G19
  22084005.308    22084004.764    22084002.336   116052255.275 6  90430340.403 5
        38.000          30.100
  22308666.012    22308665.591    22308662.260   117232878.360 6  91350307.320 3
        36.000          23.000
  21600563.553    21600563.340    21600562.171   113511763.322 6  88450737.143 6
        41.000          37.000
  24098531.647    24098531.371    24098529.511   126638636.446 3  98679464.198 2
        23.000          15.100
  21332671.691    21332671.099    21332668.000   112103988.721 7  87353768.181 6
        44.000          38.000
  20290516.427    20290516.149    20290511.673   106627450.815 8  83086342.676 8
        48.000          49.000
  21554065.082    21554064.680    21554063.408   113267391.449 6  88260306.328 5
        41.000          35.100
  20490052.705    20490052.595    20490050.575   107675987.388 7  83903376.573 7
        46.000          42.000
  23316552.110    23316551.773    23316549.314   122529330.943 4  95477408.301 3
        25.900          19.300
  21989678.817    21989677.507    21989674.269   115556618.602 7  90044135.509 5
        43.000          35.100
 10  1  1  0  6 30.0000000  0 10G14G21G 6G27G18G22G 3G26G 9G19
  22066973.176    22066972.504    22066970.059   115962750.238 6  90360596.246 5
        38.000          31.000
  22324268.360    22324267.858    22324264.516   117314869.093 6  91414196.200 3
        36.000          23.800
  21608780.157    21608779.718    21608778.277   113554938.957 6  88484380.498 6
        41.000          37.000
  24096336.828    24096336.570    24096333.994   126627102.968 3  98670477.084 1
        23.000          11.000
  21342979.952    21342979.510    21342976.519   112158160.617 7  87395980.056 6
        43.000          39.000
  20290025.237    20290024.946    20290020.479   106624869.434 8  83084331.220 8
        48.000          49.000
  21561664.829    21561664.421    21561662.990   113307327.434 6  88291425.273 5
        41.000          35.100
  20478796.993    20478796.913    20478794.868   107616838.302 7  83857286.390 7
        46.000          42.000
  23306667.584    23306667.288    23306664.352   122477386.885 4  95436932.420 2
        27.100          15.100
  21983100.081    21983098.862    21983095.504   115522046.707 7  90017196.374 5
        43.000          35.100
 10  1  1  0  7  0.0000000  0 10G14G21G 6G27G18G22G 3G26G 9G19
  22050009.819    22050009.250    22050006.976   115873607.250 6  90291134.207 5
        38.000          31.000
  22339928.092    22339927.528    22339924.173   117397161.197 5  91478319.930 3
        35.100          23.800
  21617094.381    21617094.014    21617092.623   113598630.443 6  88518425.805 6
        41.000          37.000
  24094235.986    24094235.452    24094233.684   126616065.587 3  98661876.541 2
        23.000          13.900
  21353339.360    21353338.835    21353335.894   112212599.041 7  87438399.613 6
        43.000          38.000
  20289605.838    20289605.560    20289600.975   106622665.197 8  83082613.647 8
        48.000          49.000
  21569371.973    21569371.456    21569370.246   113347827.687 6  88322983.900 5
        41.000          35.100
  20467665.051    20467664.853    20467662.809   107558338.782 7  83811702.364 7
        46.000          42.000
  23296891.153    23296890.716    23296888.657   122426012.320 4  95396900.310 2
        25.900          17.800
  21976627.637    21976626.503    21976623.127   115488034.194 7  89990693.124 5
        43.000          35.100
 10  1  1  0  7 30.0000000  0 10G14G21G 6G27G18G22G 3G26G 9G19
  22033114.070    22033113.542    22033111.398   115784820.426 6  90221949.692 5
        38.000          31.000
  22355643.276    22355642.689    22355639.459   117479744.840 5  91542670.822 3
        34.000          23.000
  21625504.658    21625504.229    21625502.880   113642827.630 6  88552865.171 6
        41.000          36.000
  24092228.700    24092228.481    24092226.776   126605516.503 3  98653656.470 2
        23.000          16.100
  21363747.638    21363747.122    21363744.117   112267294.407 7  87481019.381 6
        43.000          38.000
  20289256.234    20289255.988    20289251.456   106620828.705 8  83081182.627 8
        48.000          49.000
  21577184.453    21577183.955    21577182.820   113388882.152 6  88354974.388 6
        41.000          36.000
  20456655.221    20456655.094    20456653.002   107500482.454 7  83766619.527 7
        46.000          42.000
  23287221.766    23287221.546    23287220.244   122375201.526 4  95357307.509 3
        25.900          21.100
  21970260.408    21970259.108    21970255.984   115454573.745 7  89964620.056 6
        43.000          36.000
 10  1  1  0  8  0.0000000  0 10G14G21G 6G27G18G22G 3G26G 9G19
  22016286.986    22016286.685    22016284.741   115696394.971 6  90153046.763 5
        39.000          32.000
  22371414.212    22371413.603    22371410.508   117562622.222 5  91607250.598 4
        34.000          24.900
  21634011.526    21634011.241    21634009.833   113687531.904 6  88587699.670 6
        41.000          36.000
  24090315.055    24090314.513    24090313.428   126595459.544 3  98645819.905 2
        23.000          17.000
  21374205.107    21374204.604    21374201.528   112322248.676 7  87523840.893 6
        43.000          38.000
  20288977.282    20288977.019    20288972.582   106619363.009 8  83080040.542 8
        48.000          49.000
  21585102.249    21585101.777    21585100.515   113430492.383 6  88387397.937 5
        41.000          35.100
  20445768.965    20445768.791    20445766.683   107443274.307 7  83722041.764 7
        46.000          42.000
  23277661.391    23277661.022    23277659.769   122324960.178 4  95318158.450 2
        25.900          17.800
  21963998.700    21963997.691    21963994.267   115421669.560 7  89938980.440 6
        43.000          36.000
 10  1  1  0  8 30.0000000  0 10G14G21G 6G27G18G22G 3G26G 9G19
  21999529.198    21999528.960    21999526.856   115608333.114 6  90084427.150 5
        39.000          32.000
  22387240.770    22387240.367    22387237.339   117645792.674 5  91672058.746 3
        34.000          23.800
  21642614.578    21642614.317    21642613.129   113732741.907 6  88622928.240 6
        41.000          36.000
  24088494.741    24088494.463    24088493.458   126585895.676 3  98638367.558 2
        23.800          17.800
  21384711.528    21384711.013    21384707.817   112377461.108 7  87566863.569 6
        43.000          37.000
  20288768.878    20288768.544    20288764.138   106618267.370 8  83079186.809 8
        48.000          49.000
  21593125.856    21593125.442    21593123.792   113472656.431 6  88420253.028 5
        41.000          35.100
  20435006.268    20435006.101    20435004.030   107386716.460 7  83677970.731 7
        46.000          42.000
  23268209.568    23268209.459    23268207.563   122275290.823 4  95279455.096 3
        27.100          21.100
  21957843.487    21957842.363    21957839.185   115389322.942 7  89913775.294 6
        43.000          36.000
 10  1  1  0  9  0.0000000  0 10G14G21G 6G27G18G22G 3G26G 9G19
  21982840.973    21982840.587    21982838.360   115520636.042 6  90016091.790 5
        39.000          31.000
  22403123.301    22403122.607    22403119.806   117729254.232 5  91737093.716 3
        34.000          23.800
  21651313.480    21651313.325    21651311.881   113778455.277 6  88658549.048 6
        41.000          36.000
  24086768.686    24086768.394    24086767.612   126576824.901 3  98631299.434 3
        23.800          19.300
  21395267.048    21395266.473    21395263.084   112432929.894 7  87610086.006 6
        43.000          37.000
  20288630.523    20288630.267    20288625.847   106617540.825 8  83078620.684 8
        48.000          49.000
  21601254.399    21601253.953    21601252.415   113515371.443 6  88453537.446 5
        41.000          35.100
  20424367.735    20424367.547    20424365.318   107330810.028 7  83634407.294 7
        46.000          42.000
  23258867.227    23258866.915    23258865.035   122226195.455 4  95241198.996 3
        27.100          22.100
  21951794.478    21951793.279    21951790.018   115357534.453 7  89889005.059 6
        43.000          37.000
 10  1  1  0  9 30.0000000  0 10G14G21G 6G27G18G22G 3G26G 9G19
  21966224.537    21966224.250    21966221.996   115433316.315 6  89948050.464 5
        39.000          32.000
  22419062.945    22419062.069    22419059.062   117813015.555 5  91802362.275 3
        34.000          23.800
  21660110.022    21660109.678    21660107.860   113824679.829 6  88694568.172 5
        41.000          35.100
  24085138.484    24085138.277    24085136.853   126568257.446 3  98624623.513 2
        23.000          17.000
  21405872.507    21405872.047    21405868.983   112488663.517 7  87653514.805 6
        43.000          37.000
  20288564.139    20288563.883    20288559.466   106617192.162 8  83078349.014 8
        48.000          49.000
  21609489.353    21609488.807    21609487.282   113558645.634 6  88487257.591 5
        41.000          34.000
  20413855.368    20413855.138    20413852.851   107275566.402 7  83591360.324 7
        46.000          42.000
  23249635.856    23249635.416    23249634.137   122177685.821 4  95203399.298 3
        25.900          21.100
  21945853.524    21945852.315    21945849.029   115326314.822 7  89864678.078 6
        43.000          36.000
 10  1  1  0 10  0.0000000  0 10G14G21G 6G27G18G22G 3G26G 9G19
  21949678.066    21949677.717    21949675.441   115346363.618 6  89880295.144 5
        39.000          32.000
  22435056.117    22435055.658    22435052.687   117897063.198 5  91867853.948 3
        34.000          23.000
  21669000.714    21669000.438    21668998.889   113871401.935 6  88730975.010 5
        40.000          35.100
  24083602.185    24083601.404    24083600.527   126560181.700 3  98618330.759 3
        23.000          19.300
  21416526.336    21416525.777    21416522.786   112544648.785 7  87697139.690 6
        43.000          37.000
  20288567.489    20288567.221    20288562.629   106617209.087 8  83078362.213 8
        48.000          49.000
  21617827.816    21617827.336    21617825.831   113602465.120 6  88521402.644 5
        41.000          35.100
  20403466.836    20403466.697    20403464.666   107220975.624 7  83548822.071 7
        46.000          42.000
  23240514.322    23240514.040    23240512.130   122129752.473 4  95166048.680 3
        25.900          19.900
  21940018.663    21940017.377    21940014.168   115295653.109 7  89840785.843 6
        43.000          36.000
 10  1  1  0 10 30.0000000  0 10G14G21G 6G27G18G22G 3G26G 9G19
  21933202.361    21933201.961    21933199.528   115259782.840 6  89812829.631 5
        39.000          32.000
  22451104.205    22451103.935    22451101.289   117981398.816 5  91933570.020 3
        34.000          23.000
  21677986.558    21677986.219    21677984.626   113918622.521 6  88767770.273 5
        40.000          35.100
  24082159.296    24082158.894    24082157.065   126552601.012 3  98612423.732 2
        23.800          15.100
  21427228.122    21427227.723    21427224.512   112600887.248 7  87740961.871 6
        43.000          37.000
  20288640.801    20288640.486    20288635.826   106617593.668 8  83078661.899 8
        48.000          49.000
  21626269.943    21626269.652    21626268.494   113646830.633 6  88555973.168 5
        41.000          35.100
  20393203.496    20393203.327    20393201.241   107167041.944 7  83506795.844 7
        46.000          42.000
  23231503.697    23231503.435    23231501.185   122082400.650 4  95129151.176 3
        24.900          19.300
  21934290.983    21934289.728    21934286.161   115265552.990 7  89817331.215 6
        43.000          36.000
 10  1  1  0 11  0.0000000  0 10G14G21G 6G27G18G22G 3G26G 9G19
  21916797.789    21916797.220    21916794.884   115173575.611 6  89745655.189 5
        39.000          32.000
  22467207.454    22467207.250    22467204.478   118066021.115 5  91999509.476 3
        34.000          23.000
  21687066.814    21687066.587    21687064.995   113966339.364 6  88804952.229 5
        41.000          35.100
  24080810.466    24080810.316    24080808.816   126545515.829 3  98606902.831 2
        22.100          15.100
  21437977.872    21437977.396    21437974.138   112657377.126 7  87784979.960 6
        43.000          37.000
  20288783.685    20288783.389    20288778.861   106618345.021 8  83079247.382 8
        48.000          49.000
  21634816.192    21634815.737    21634814.341   113691740.008 6  88590967.483 5
        41.000          34.000
  20383065.458    20383065.379    20383063.259   107113766.691 7  83465282.676 7
        46.000          42.000
  23222603.811    23222603.324    23222601.373   122035632.282 4  95092708.320 3
        25.900          19.300
  21928669.856    21928668.777    21928665.628   115236015.404 7  89794314.928 6
        43.000          36.000
 10  1  1  0 11 30.0000000  0 10G14G21G 6G27G18G22G 3G26G 9G19
  21900464.759    21900464.256    21900461.981   115087745.186 6  89678774.359 5
        40.000          32.000
  22483365.418    22483364.819    22483361.731   118150929.781 5  92065672.066 3
        34.000          23.000
  21696241.167    21696240.922    21696239.659   114014551.697 6  88842520.276 6
        40.000          36.000
  24079556.793    24079556.728    24079555.330   126538927.409 3  98601769.023 2
        22.100          16.100
  21448775.391    21448774.871    21448771.824   112714118.182 7  87829193.778 6
        43.000          37.000
  20288996.429    20288996.174    20288991.716   106619463.691 8  83080119.087 8
        48.000          49.000
  21643465.668    21643465.156    21643463.500   113737192.091 6  88626384.679 5
        41.000          34.000
  20373053.424    20373053.305    20373051.170   107061152.510 7  83424284.629 7
        46.000          43.000
  23213815.606    23213815.159    23213813.700   121989450.538 4  95056722.560 3
        24.900          19.900
  21923156.514    21923155.278    21923152.240   115207042.183 7  89771738.407 6
        43.000          36.000
 10  1  1  0 12  0.0000000  0 10G14G21G 6G27G18G22G 3G26G 9G19
  21884204.190    21884203.650    21884201.295   115002295.430 6  89612190.156 5
        40.000          32.000
  22499577.417    22499577.112    22499573.760   118236125.762 5  92132058.545 3
        33.000          22.100
  21705509.731    21705509.638    21705508.626   114063259.791 6  88880474.624 6
        40.000          36.000
  24078397.948    24078397.502    24078396.203   126532838.255 3  98597024.253 2
        23.000          12.600
  21459620.633    21459620.146    21459617.328   112771111.580 7  87873604.215 6
        42.000          37.000
  20289279.458    20289279.198    20289274.699   106620950.886 8  83081277.953 8
        48.000          49.000
  21652218.182    21652217.609    21652216.193   113783187.371 6  88662225.156 5
        41.000          34.000
  20363167.871    20363167.661    20363165.666   107009203.326 7  83383804.762 7
        46.000          43.000
  23205140.135    23205140.096    23205138.356   121943860.122 4  95021197.591 3
        25.900          21.100
  21917750.616    21917749.600    21917746.540   115178635.896 7  89749603.649 6
        43.000          36.000
 10  1  1  0 12 30.0000000  0 10G14G21G 6G27G18G22G 3G26G 9G19
  21868016.864    21868016.542    21868014.598   114917232.376 6  89545907.286 5
        39.000          32.000
  22515845.446    22515844.669    22515841.369   118321611.693 5  92198670.946 3
        34.000          23.800
  21714873.844    21714873.425    21714871.968   114112465.623 6  88918816.827 5
        40.000          35.100
  24077335.193    24077334.833    24077333.071   126527252.805 3  98592671.979 2
        22.100          13.900
  21470514.831    21470514.338    21470511.525   112828360.351 7  87918213.650 6
        43.000          37.000
  20289633.260    20289633.003    20289628.461   106622810.052 8  83082726.666 8
        48.000          49.000
  21661074.452    21661073.850    21661072.655   113829727.376 6  88698490.089 5
        41.000          35.100
  20353409.702    20353409.566    20353407.649   106957924.591 7  83343847.326 7
        46.000          43.000
  23196578.749    23196578.292    23196576.142   121898867.325 4  94986138.267 3
        25.900          19.900
  21912453.917    21912452.929    21912449.768   115150802.008 7  89727914.917 6
        43.000          36.000
 10  1  1  0 13  0.0000000  0 10G14G21G 6G27G18G22G 3G26G 9G19
  21851903.060    21851902.764    21851900.606   114832553.196 6  89479923.539 5
        40.000          33.000
  22532166.672    22532166.165    22532162.947   118407381.442 5  92265504.514 3
        34.000          23.000
  21724330.733    21724330.427    21724329.028   114162162.421 6  88957541.594 5
        40.000          35.100
  24076367.680    24076367.462    24076364.917   126522166.358 3  98588708.529 2
        23.800          15.100
  21481456.527    21481455.943    21481452.810   112885858.076 7  87963017.080 6
        43.000          37.000
  20290056.630    20290056.342    20290051.790   106625034.895 8  83084460.327 8
        48.000          49.000
  21670032.586    21670032.220    21670030.894   113876804.944 6  88735173.906 5
        40.000          34.000
  20343778.834    20343778.539    20343776.480   106907312.780 7  83304409.567 7
        46.000          43.000
  23188129.429    23188129.343    23188127.773   121854469.082 4  94951542.270 3
        27.100          22.100
  21907265.365    21907264.204    21907261.206   115123536.140 7  89706668.802 6
        42.000          36.000
 10  1  1  0 13 30.0000000  0 10G14G21G 6G27G18G22G 3G26G 9G19
  21835863.341    21835862.863    21835860.527   114748262.986 6  89414242.881 5
        40.000          32.000
  22548542.627    22548541.860    22548538.431   118493436.798 5  92332560.624 3
        33.000          22.100
  21733881.189    21733880.940    21733879.611   114212351.347 6  88996649.834 5
        40.000          35.100
  24075495.438    24075495.176    24075492.376   126517582.599 4  98585136.772 2
        24.900          16.100
  21492445.586    21492445.019    21492441.948   112943606.785 7  88008016.076 6
        42.000          37.000
  20290550.169    20290549.844    20290545.293   106627628.567 8  83086481.383 8
        48.000          49.000
  21679093.992    21679093.496    21679091.850   113924420.975 6  88772277.303 5
        40.000          34.000
  20334275.322    20334275.194    20334273.147   106857372.649 7  83265495.200 7
        46.000          43.000
  23179795.061    23179794.591    23179793.055   121810670.635 4  94917413.653 3
        24.900          22.100
  21902186.471    21902185.110    21902181.756   115096842.344 7  89685868.446 6
        43.000          36.000
 10  1  1  0 14  0.0000000  0 10G14G21G 6G27G18G22G 3G26G 9G19
  21819895.065    21819894.647    21819892.222   114664350.052 6  89348856.204 5
        40.000          32.000
  22564970.217    22564969.431    22564966.052   118579762.903 5  92399827.721 3
        34.000          23.000
  21743522.710    21743522.394    21743520.894   114263016.743 6  89036129.351 5
        40.000          35.100
  24074715.916    24074715.601    24074713.577   126513488.325 3  98581946.458 2
        23.800          17.000
  21503479.600    21503479.007    21503475.960   113001591.234 7  88053198.763 6
        42.000          37.000
  20291111.242    20291110.906    20291106.262   106630576.685 8  83088778.629 8
        48.000          49.000
  21688254.636    21688254.104    21688252.720   113972560.163 6  88809788.352 5
        41.000          34.000
  20324897.588    20324897.395    20324895.288   106808092.009 7  83227094.722 7
        46.000          43.000
  23171572.810    23171572.417    23171570.631   121767460.885 4  94883743.746 3
        25.900          22.100
  21897213.083    21897211.814    21897208.552   115070708.055 7  89665504.076 6
        43.000          37.000
 10  1  1  0 14 30.0000000  0 10G14G21G 6G27G18G22G 3G26G 9G19
  21804001.554    21804001.182    21803998.954   114580829.644 6  89283775.390 5
        40.000          33.000
  22581451.167    22581450.497    22581446.949   118666371.861 5  92467315.210 3
        33.000          22.100
  21753256.783    21753256.460    21753254.726   114314169.952 6  89075988.995 5
        40.000          34.000
  24074032.848    24074032.563    24074030.536   126509897.183 3  98579148.179 2
        23.000          12.600
  21514560.812    21514560.322    21514557.395   113059823.959 7  88098574.915 6
        42.000          37.000
  20291741.874    20291741.587    20291737.086   106633891.759 8  83091361.816 8
        48.000          49.000
  21697516.622    21697516.236    21697515.028   114021233.867 6  88847715.905 5
        41.000          34.000
  20315648.192    20315648.027    20315645.871   106759485.867 7  83189219.824 7
        47.000          43.000
  23163464.469    23163464.073    23163462.964   121724854.924 4  94850544.321 3
        24.900          23.000
  21892348.860    21892347.676    21892344.437   115045147.181 7  89645586.526 6
        43.000          36.000
 10  1  1  0 15  0.0000000  0 10G14G21G 6G27G18G22G 3G26G 9G19
  21788183.967    21788183.590    21788181.125   114497706.576 6  89219004.192 5
        40.000          33.000
  22597985.925    22597985.599    22597982.495   118753265.256 5  92535024.343 3
        32.000          23.000
  21763084.194    21763083.682    21763082.203   114365812.133 6  89116229.643 5
        40.000          35.100
  24073445.416    24073445.168    24073443.471   126506812.299 3  98576744.380 2
        23.000          15.100
  21525689.754    21525689.154    21525686.173   113118306.402 7  88144145.656 6
        43.000          36.000
  20292442.975    20292442.659    20292438.234   106637576.036 8  83094232.694 8
        48.000          49.000
  21706880.675    21706880.408    21706879.038   114070442.509 6  88886060.303 5
        41.000          34.000
  20306527.930    20306527.781    20306525.657   106711558.557 7  83151873.886 7
        47.000          43.000
  23155473.068    23155472.543    23155471.447   121682858.125 4  94817819.568 3
        24.900          23.000
  21887594.359    21887593.289    21887590.019   115020163.422 7  89626118.669 6
        43.000          37.000
 10  1  1  0 15 30.0000000  0 10G14G21G 6G27G18G22G 3G26G 9G19
  21772441.471    21772441.135    21772438.656   114414979.146 6  89154541.289 5
        40.000          33.000
  22614574.167    22614573.959    22614570.981   118840438.061 5  92602951.193 3
        33.000          22.100
  21773003.263    21773002.882    21773001.175   114417937.273 6  89156846.615 5
        40.000          34.000
  24072954.740    24072954.547    24072952.091   126504229.829 4  98574732.102 2
        25.900          16.100
  21536865.079    21536864.545    21536861.559   113177033.694 7  88189907.182 6
        42.000          36.000
  20293213.566    20293213.254    20293208.735   106641624.945 8  83097387.698 8
        48.000          49.000
  21716345.710    21716345.240    21716344.152   114120179.878 6  88924816.694 5
        40.000          35.100
  20297536.380    20297536.135    20297534.057   106664307.546 7  83115054.930 7
        47.000          43.000
  23147596.472    23147596.345    23147594.761   121641468.467 4  94785567.914 3
        24.900          21.100
  21882949.637    21882948.477    21882945.104   114995754.072 7  89607098.403 6
        43.000          37.000
 10  1  1  0 16  0.0000000  0 10G14G21G 6G27G18G22G 3G26G 9G19
  21756774.023    21756773.612    21756771.283   114332647.086 6  89090386.462 5
        40.000          34.000
  22631215.169    22631214.921    22631211.475   118927886.993 5  92671093.212 3
        32.000          19.900
  21783013.386    21783013.076    21783011.584   114470541.329 6  89197836.774 5
        40.000          35.100
  24072558.235    24072557.964    24072555.862   126502148.245 4  98573110.098 2
        25.900          13.900
  21548086.637    21548086.051    21548082.935   113236002.405 7  88235856.834 6
        42.000          36.000
  20294053.028    20294052.654    20294048.129   106646036.193 8  83100825.046 8
        48.000          49.000
  21725910.443    21725909.912    21725908.332   114170441.559 6  88963981.637 5
        40.000          34.000
  20288673.176    20288673.104    20288670.925   106617732.095 7  83078762.392 7
        47.000          43.000
  23139836.113    23139835.895    23139833.776   121600685.865 4  94753789.280 3
        25.900          21.100
  21878413.765    21878412.455    21878409.037   114971917.222 7  89588524.247 6
        43.000          36.000
 10  1  1  0 16 30.0000000  0 10G14G21G 6G27G18G22G 3G26G 9G19
  21741182.417    21741181.923    21741179.506   114250711.954 6  89026540.930 5
        41.000          34.000
  22647908.262    22647908.096    22647904.559   119015609.975 5  92739448.786 3
        32.000          19.900
  21793114.291    21793113.922    21793112.615   114523621.823 6  89239198.187 5
        40.000          35.100
  24072257.155    24072257.020    24072254.943   126500567.487 4  98571878.355 2
        24.900          17.000
  21559353.705    21559353.099    21559350.143   113295211.163 7  88281993.533 6
        42.000          36.000
  20294961.038    20294960.768    20294956.293   106650808.874 8  83104544.027 8
        48.000          49.000
  21735574.029    21735573.587    21735572.171   114221225.557 6  89003553.575 5
        40.000          34.000
  20279939.097    20279938.921    20279936.634   106571833.241 7  83042997.065 7
        47.000          43.000
  23132191.492    23132191.397    23132188.341   121560511.975 4  94722484.973 3
        27.100          19.300
  21873986.735    21873985.628    21873982.203   114948653.674 7  89570396.814 6
        44.000          36.000
 10  1  1  0 17  0.0000000  0 10G14G21G 6G27G18G22G 3G26G 9G19
  21725665.353    21725665.046    21725662.675   114169170.168 6  88963001.904 5
        41.000          34.000
  22664652.872    22664652.391    22664649.145   119103600.813 5  92808013.063 3
        32.000          22.100
  21803304.398    21803304.066    21803302.873   114577171.350 6  89280925.071 5
        40.000          35.100
  24072050.459    24072050.468    24072049.063   126499482.148 4  98571032.677 2
        24.900          17.000
  21570665.328    21570664.569    21570661.343   113354653.229 7  88328312.030 6
        42.000          36.000
  20295936.633    20295936.426    20295931.905   106655935.885 8  83108539.106 8
        48.000          49.000
  21745335.818    21745335.340    21745333.782   114272524.079 6  89043526.441 5
        40.000          34.000
  20271332.611    20271332.529    20271330.382   106526606.795 7  83007755.694 7
        47.000          43.000
  23124662.181    23124661.360    23124659.070   121520943.559 4  94691652.465 3
        27.100          19.300
  21869667.845    21869666.960    21869663.555   114925958.590 7  89552712.345 6
        44.000          36.000
 10  1  1  0 17 30.0000000  0 10G14G21G 6G27G18G22G 3G26G 9G19
  21710227.948    21710227.539    21710225.219   114088045.685 6  88899788.048 5
        40.000          34.000
  22681451.291    22681451.224    22681448.295   119191879.835 5  92876801.888 3
        32.000          22.100
  21813587.293    21813587.121    21813585.971   114631209.659 6  89323032.834 5
        40.000          35.100
  24071942.709    24071942.099    24071941.046   126498914.313 3  98570590.230 2
        23.800          17.800
  21582024.802    21582024.285    21582021.090   113414349.272 7  88374828.431 5
        42.000          35.100
  20296983.914    20296983.683    20296979.090   106661438.677 7  83112827.004 8
        47.000          49.000
  21755199.099    21755198.602    21755197.391   114324356.662 6  89083915.462 5
        40.000          34.000
  20262858.806    20262858.617    20262856.459   106482076.136 7  82973056.493 7
        47.000          43.000
  23117252.240    23117251.811    23117249.298   121482004.414 4  94661310.289 3
        28.100          21.100
  21865461.830    21865460.543    21865457.305   114903854.438 7  89535488.347 6
        44.000          37.000
 10  1  1  0 18  0.0000000  0 10G14G21G 6G27G18G22G 3G26G 9G19
  21694865.981    21694865.362    21694863.054   114007316.941 6  88836882.561 5
        41.000          34.000
  22698300.967    22698300.380    22698296.945   119280422.683 5  92945796.318 3
        32.000          19.300
  21823959.280    21823958.785    21823957.161   114685711.362 6  89365501.670 5
        40.000          35.100
  24071928.878    24071928.398    24071926.852   126498840.908 3  98570533.021 2
        23.000          16.100
  21593428.370    21593427.788    21593424.523   113474274.640 7  88421523.527 5
        42.000          35.100
  20298098.081    20298097.742    20298093.241   106667293.312 8  83117389.063 8
        48.000          49.000
  21765159.155    21765158.781    21765157.333   114376697.563 6  89124700.573 5
        40.000          33.000
  20254513.047    20254512.895    20254510.651   106438219.151 7  82938882.233 7
        47.000          43.000
  23109957.985    23109957.621    23109955.079   121443673.383 4  94631441.973 3
        27.100          19.900
  21861363.435    21861362.152    21861359.055   114882318.547 7  89518707.151 6
        43.000          37.000
 10  1  1  0 18 30.0000000  0 10G14G21G 6G27G18G22G 3G26G 9G19
  21679581.408    21679580.870    21679578.727   113926997.244 6  88774295.814 5
        41.000          34.000
  22715201.618    22715201.217    22715198.273   119369239.096 5  93015003.922 3
        31.000          19.900
  21834420.131    21834419.833    21834418.374   114740685.779 6  89408338.864 5
        39.000          35.100
  24072011.123    24072010.524    24072009.287   126499273.279 3  98570869.974 3
        23.000          19.900
  21604877.375    21604876.815    21604873.584   113534439.435 7  88468405.192 5
        42.000          35.100
  20299281.132    20299280.861    20299276.325   106673510.546 8  83122233.667 8
        48.000          49.000
  21775217.811    21775217.550    21775215.990   114429556.140 6  89165889.071 5
        40.000          33.000
  20246297.838    20246297.728    20246295.531   106395048.450 7  82905242.739 7
        47.000          43.000
  23102782.225    23102781.723    23102779.290   121405963.725 4  94602057.844 3
        27.100          21.100
  21857375.802    21857374.589    21857371.097   114861363.000 7  89502378.162 6
        43.000          36.000
 10  1  1  0 19  0.0000000  0 10G14G21G 6G27G18G22G 3G26G 9G19
  21664376.400    21664375.733    21664373.370   113847093.185 6  88712032.937 5
        41.000          34.000
  22732156.071    22732155.623    22732152.618   119458332.677 5  93084427.477 3
        32.000          21.100
  21844971.727    21844971.589    21844970.110   114796135.525 6  89451546.445 5
        39.000          35.100
  24072191.155    24072190.583    24072189.090   126500216.784 4  98571605.174 3
        24.900          21.100
  21616372.269    21616371.821    21616368.878   113594847.682 7  88515476.559 6
        42.000          36.000
  20300534.016    20300533.774    20300529.207   106680094.630 8  83127364.124 8
        48.000          49.000
  21785375.668    21785375.152    21785373.693   114482934.866 6  89207482.871 5
        40.000          33.000
  20238214.487    20238214.365    20238212.159   106352570.134 7  82872142.766 7
        47.000          43.000
  23095725.076    23095725.016    23095722.844   121368882.257 4  94573163.227 3
        27.100          21.100
  21853499.706    21853498.461    21853494.907   114840993.380 7  89486505.742 6
        43.000          36.000
 10  1  1  0 19 30.0000000  0 10G14G21G 6G27G18G22G 3G26G 9G19
  21649248.022    21649247.565    21649245.194   113767594.814 6  88650086.177 5
        41.000          35.100
  22749160.072    22749159.771    22749156.533   119547690.037 5  93154056.576 3
        32.000          19.300
  21855611.692    21855611.318    21855609.834   114852046.872 6  89495113.710 5
        39.000          35.100
  24072464.558    24072464.369    24072463.262   126501659.699 3  98572729.547 2
        23.800          17.000
  21627911.603    21627911.131    21627908.000   113655486.544 7  88562727.623 5
        42.000          35.100
  20301854.338    20301854.140    20301849.559   106687033.339 8  83132770.916 8
        48.000          49.000
  21795629.552    21795629.082    21795627.596   114536819.749 6  89249471.080 5
        40.000          33.000
  20230260.845    20230260.681    20230258.541   106310773.435 7  82839573.923 7
        47.000          43.000
  23088786.222    23088785.971    23088784.908   121332419.060 4  94544750.368 3
        27.100          23.000
  21849732.891    21849731.671    21849728.109   114821198.301 7  89471081.013 6
        43.000          36.000
 10  1  1  0 20  0.0000000  0 10G14G21G 6G27G18G22G 3G26G 9G19
  21634199.415    21634199.046    21634196.778   113688514.336 6  88588465.051 5
        41.000          35.100
  22766215.943    22766215.459    22766212.118   119637320.318 5  93223898.350 2
        31.000          16.100
  21866340.390    21866340.105    21866338.874   114908427.911 6  89539046.973 5
        39.000          35.100
  24072836.772    24072836.106    24072834.878   126503612.532 3  98574251.254 3
        22.100          19.300
  21639496.704    21639496.006    21639492.973   113716364.607 7  88610165.082 5
        42.000          35.100
  20303244.095    20303243.775    20303239.216   106694335.555 8  83138460.958 8
        48.000          49.000
  21805981.153    21805980.753    21805979.594   114591218.452 6  89291859.667 5
        40.000          33.000
  20222439.101    20222439.037    20222436.738   106269670.002 7  82807545.286 7
        47.000          43.000
  23081967.656    23081967.314    23081966.222   121296586.013 4  94516828.529 3
        25.900          23.000
  21846077.564    21846076.343    21846072.583   114801988.705 7  89456112.506 6
        44.000          36.000
 10  1  1  0 20 30.0000000  0 10G14G21G 6G27G18G22G 3G26G 9G19
  21619229.492    21619228.961    21619226.568   113609844.876 6  88527164.200 5
        41.000          35.100
  22783322.761    22783322.002    22783318.292   119727213.704 5  93293945.145 3
        31.000          19.300
  21877156.650    21877156.299    21877155.086   114965267.869 6  89583337.833 5
        39.000          34.000
  24073303.744    24073303.195    24073301.418   126506066.689 3  98576163.600 2
        23.800          15.100
  21651124.860    21651124.340    21651121.325   113777472.530 7  88657781.652 5
        42.000          35.100
  20304701.222    20304700.828    20304696.273   106701992.234 7  83144427.205 8
        47.000          49.000
  21816428.790    21816428.361    21816427.134   114646120.237 6  89334640.268 5
        40.000          34.000
  20214748.065    20214747.887    20214745.431   106229252.334 7  82776051.011 7
        47.000          43.000
  23075267.530    23075267.251    23075265.835   121261376.762 4  94489392.773 3
        25.900          23.000
  21842531.911    21842530.713    21842527.130   114783356.759 7  89441594.120 6
        44.000          37.000
 10  1  1  0 21  0.0000000  0 10G14G21G 6G27G18G22G 3G26G 9G19
  21604337.670    21604337.425    21604335.113   113531590.217 6  88466186.574 5
        41.000          35.100
  22800478.603    22800478.220    22800475.115   119817370.588 5  93364197.268 3
        31.000          19.300
  21888060.214    21888059.906    21888058.512   115022566.484 6  89627986.094 5
        39.000          34.000
  24073865.818    24073865.333    24073865.209   126509024.013 3  98578468.021 3
        23.000          19.300
  21662797.153    21662796.668    21662793.587   113838811.074 7  88705577.923 5
        42.000          35.100
  20306225.608    20306225.343    20306220.940   106710004.481 7  83150670.514 8
        47.000          49.000
  21826971.948    21826971.560    21826970.137   114701524.449 6  89377812.366 5
        40.000          33.000
  20207187.711    20207187.538    20207185.312   106189523.305 7  82745093.336 7
        47.000          43.000
  23068686.946    23068686.598    23068684.841   121226794.863 4  94462445.851 3
        25.900          21.100
  21839096.498    21839095.254    21839091.971   114765304.758 7  89427527.644 6
        44.000          37.000
 10  1  1  0 21 30.0000000  0 10G14G21G 6G27G18G22G 3G26G 9G19
  21589526.513    21589525.965    21589523.675   113453756.090 6  88405536.622 5
        41.000          35.100
  22817685.337    22817684.816    22817681.615   119907793.937 4  93434657.005 3
        29.000          19.300
  21899051.383    21899051.054    21899049.889   115080325.012 6  89672992.728 5
        39.000          34.000
  24074524.994    24074524.780    24074523.629   126512488.204 3  98581167.430 2
        22.100          15.100
  21674513.821    21674513.298    21674510.156   113900382.182 6  88753555.420 5
        41.000          35.100
  20307818.503    20307818.245    20307813.880   106718375.558 7  83157193.435 8
        47.000          49.000
  21837610.935    21837610.494    21837609.278   114757432.347 6  89421376.947 5
        40.000          33.000
  20199759.168    20199759.114    20199757.167   106150487.562 7  82714675.885 7
        47.000          43.000
  23062226.667    23062226.237    23062224.788   121192845.789 4  94435992.051 3
        27.100          22.100
  21835772.415    21835771.139    21835767.798   114747836.360 7  89413915.919 6
        43.000          36.000
 10  1  1  0 22  0.0000000  0 10G14G21G 6G27G18G22G 3G26G 9G19
  21574795.918    21574795.362    21574793.117   113376346.248 7  88345217.289 5
        42.000          35.100
  22834943.578    22834943.142    22834939.179   119998483.664 5  93505324.343 2
        31.000          17.000
  21910129.919    21910129.584    21910128.371   115138543.651 6  89718357.897 5
        39.000          34.000
  24075281.521    24075280.728    24075279.287   126516461.640 3  98584263.623 2
        23.000          16.100
  21686274.584    21686274.211    21686271.310   113962187.214 6  88801715.192 5
        41.000          34.000
  20309480.026    20309479.799    20309475.343   106727106.807 7  83163997.013 8
        47.000          49.000
  21848345.515    21848345.080    21848343.683   114813843.982 6  89465334.038 5
        40.000          33.000
  20192463.641    20192463.535    20192461.525   106112148.504 7  82684801.302 7
        47.000          44.000
  23055887.197    23055886.813    23055884.938   121159533.167 4  94410034.173 3
        28.100          22.100
  21832560.339    21832558.881    21832555.382   114730955.090 7  89400761.690 6
        44.000          36.000
 10  1  1  0 22 30.0000000  0 10G14G21G 6G27G18G22G 3G26G 9G19
  21560145.745    21560145.380    21560143.001   113299359.513 7  88285227.641 5
        42.000          35.100
  22852250.728    22852250.516    22852247.217   120089435.750 5  93576196.094 3
        31.000          19.300
  21921295.371    21921294.966    21921293.738   115197217.233 6  89764077.554 5
        39.000          34.000
  24076133.427    24076133.148    24076131.559   126520941.233 3  98587754.225 2
        23.000          15.100
  21698079.668    21698079.232    21698076.028   114024222.153 6  88850054.112 5
        41.000          34.000
  20311209.318    20311209.080    20311204.593   106736194.396 7  83171078.255 8
        47.000          49.000
  21859175.240    21859174.735    21859173.197   114870753.974 6  89509679.473 5
        39.000          33.000
  20185300.244    20185300.118    20185298.015   106074504.417 7  82655468.259 7
        47.000          44.000
  23049668.762    23049668.557    23049666.618   121126855.896 4  94384571.397 3
        27.100          22.100
  21829458.642    21829457.423    21829454.259   114714658.178 7  89388062.808 6
        44.000          37.000
 10  1  1  0 23  0.0000000  0 10G14G21G 6G27G18G22G 3G26G 9G19
  21545576.312    21545575.869    21545573.374   113222796.199 7  88225567.944 5
        42.000          35.100
  22869607.835    22869607.090    22869604.087   120180647.207 4  93647269.935 3
        29.000          19.300
  21932546.599    21932546.234    21932544.778   115256342.078 6  89810148.856 5
        39.000          34.000
  24077082.399    24077082.081    24077080.113   126525925.445 3  98591638.048 2
        23.000          13.900
  21709927.998    21709927.427    21709924.170   114086484.046 6  88898569.885 5
        41.000          34.000
  20313006.118    20313005.793    20313001.267   106745636.031 8  83178435.376 8
        48.000          49.000
  21870099.261    21870098.675    21870097.060   114928158.273 6  89554410.076 5
        40.000          33.000
  20178268.855    20178268.724    20178266.561   106037554.454 7  82626676.091 7
        47.000          43.000
  23043572.442    23043572.007    23043569.407   121094814.373 4  94359603.991 3
        29.000          19.300
  21826468.420    21826467.168    21826463.997   114698944.437 7  89375818.347 6
        43.000          37.000
 10  1  1  0 23 30.0000000  0 10G14G21G 6G27G18G22G 3G26G 9G19
  21531088.414    21531088.021    21531085.397   113146661.705 7  88166242.383 5
        42.000          35.100
  22887014.345    22887014.024    22887010.919   120272120.443 5  93718547.778 3
        30.100          19.300
  21943883.705    21943883.389    21943881.986   115315919.483 6  89856572.792 5
        39.000          34.000
  24078127.667    24078127.310    24078125.043   126531417.755 3  98595917.788 2
        23.800          13.900
  21721819.430    21721819.052    21721815.921   114148975.674 6  88947264.667 5
        41.000          34.000
  20314870.731    20314870.468    20314865.941   106755434.753 7  83186070.748 8
        47.000          49.000
