     2.10           OBSERVATION DATA    G (GPS)             RINEX VERSION / TYPE
teqc  2005Sep1                          20080101 01:04:38UTCPGM / RUN BY / DATE
Linux 2.4.20-8|Pentium IV|gcc|Linux|486/DX+                 COMMENT
ALGO CACS-ACP   883160   ALGONQUIN PARK  ONT  CANADA        MARKER NAME
40104M002                                                   MARKER NUMBER
-Unknown-           GEOD. SURVEY, NATURAL RESOURCES CANADA  OBSERVER / AGENCY
2048                AOA BENCHMARK ACT   3.3.32.2N           REC # / TYPE / VERS
386                 AOAD/M_T        NONE                    ANT # / TYPE
   918129.4000 -4346071.2000  4561977.8000                  APPROX POSITION XYZ
        0.1000        0.0000        0.0000                  ANTENNA: DELTA H/E/N
     1     1                                                WAVELENGTH FACT L1/2
     7    L1    L2    C1    P2    P1    S1    S2            # / TYPES OF OBSERV
    30.0000                                                 INTERVAL
L1 PHASE CENTRE  .110m ABOVE ARP                            COMMENT
L2 PHASE CENTRE  .128m ABOVE ARP                            COMMENT
where ARP is the Antenna Reference Point for HI measurement COMMENT
    P1 =    P1  TurboRogue; =    Y1  Benchmark              COMMENT
    L1 = L1(CA)                                             COMMENT
    P2 =    P2  TurboRogue; =    Y2  Benchmark              COMMENT
    L2 = L2(P2) TurboRogue; = L2(Y2) Benchmark              COMMENT
 SNR is mapped to RINEX snr flag value [0-9]                COMMENT
  L1 & L2: min(max(int(snr_dBHz/6), 0), 9)                  COMMENT
  2008     1     1     0     0    0.0000000     GPS         TIME OF FIRST OBS
                                                            END OF HEADER
 08  1  1  0  0  0.0000000  0  9G 6G21G18G24G 8G 7G15G10G26
 -10642172.895 5  -8292597.948 4  22766278.398    22766276.230    22766277.724
        31.800          28.800
 -21746103.689 7 -16945010.027 7  20888849.290    20888844.890    20888848.234
        45.700          42.500
  -6098863.810 6  -4752359.105 5  22541758.674    22541754.460    22541757.729
        36.700          31.000
 -21139142.281 7 -16472051.013 7  20539614.566    20539612.212    20539613.624
        45.500          44.800
  -3389410.675 3  -2641096.238 2  24283531.979    24283529.116    24283531.225
        22.600          16.100
 -12604683.317 5  -9821826.050 5  22563685.837    22563683.143    22563684.641
        34.500          30.800
 -22549893.151 7 -17571335.799 8  20390163.324    20390159.914    20390162.967
        47.600          50.700
  -7713338.170 5  -6010382.281 4  23119487.137    23119484.383    23119485.916
        30.100          26.500
 -24088428.402 7 -18770194.883 7  19903186.371    19903183.324    19903185.846
        47.000          46.300
 08  1  1  0  0 30.0000000  0  9G 6G21G18G24G 8G 7G15G10G26
 -10558735.059 5  -8227581.467 4  22782156.070    22782154.026    22782155.275
        31.600          28.800
 -21803022.852 7 -16989362.621 7  20878017.975    20878013.514    20878016.829
        45.700          42.700
  -6170817.917 6  -4808427.234 5  22528066.212    22528062.249    22528065.179
        36.400          31.500
 -21112064.175 7 -16450951.191 7  20544767.275    20544765.078    20544766.413
        45.600          44.600
  -3358790.892 3  -2617236.657 2  24289359.100    24289355.851    24289357.757
        19.900          17.000
 -12538787.091 5  -9770478.352 5  22576225.430    22576222.804    22576224.218
        34.600          30.400
 -22558921.830 7 -17578371.129 8  20388445.285    20388441.761    20388444.886
        47.600          50.600
  -7625884.087 4  -5942236.260 4  23136128.780    23136126.221    23136127.725
        28.400          26.500
 -24074756.544 7 -18759541.482 7  19905788.165    19905784.998    19905787.587
        46.900          46.200
 08  1  1  0  1  0.0000000  0  9G 6G21G18G24G 8G 7G15G10G26
 -10475008.892 5  -8162340.335 4  22798088.386    22798086.375    22798087.575
        30.400          28.100
 -21859560.421 7 -17033417.869 7  20867259.126    20867254.721    20867258.063
        45.700          42.600
  -6242605.453 5  -4864365.550 5  22514405.297    22514401.570    22514404.128
        35.400          32.100
 -21084550.135 7 -16429511.679 7  20550002.989    20550000.806    20550002.114
        45.500          44.600
  -3327610.697 3  -2592940.402 2  24295293.016    24295289.722    24295291.616
        23.000          17.000
 -12472513.787 5  -9718836.828 5  22588836.603    22588834.100    22588835.412
        34.000          31.000
 -22567397.070 7 -17584975.204 8  20386832.468    20386828.914    20386832.079
        47.700          50.600
  -7538331.216 4  -5874013.250 4  23152789.973    23152786.997    23152788.783
        29.700          27.100
 -24060406.900 7 -18748359.934 7  19908518.767    19908515.629    19908518.224
        47.100          46.200
 08  1  1  0  1 30.0000000  0  9G 6G21G18G24G 8G 7G15G10G26
 -10390997.307 5  -8096876.786 4  22814075.473    22814073.261    22814074.726
        30.400          27.600
 -21915714.252 7 -17077174.099 7  20856573.579    20856568.992    20856572.468
        45.900          42.700
  -6314225.745 6  -4920173.547 5  22500776.897    22500772.390    22500775.847
        36.600          31.600
 -21056599.698 7 -16407732.113 7  20555321.845    20555319.499    20555320.871
        45.400          44.400
  -3295871.084 3  -2568208.238 2  24301332.480    24301329.096    24301331.445
        22.100          15.100
 -12405865.856 5  -9666903.394 5  22601519.290    22601516.870    22601518.191
        34.000          30.800
 -22575319.207 7 -17591148.290 8  20385324.896    20385321.431    20385324.528
        47.600          50.600
  -7450681.203 4  -5805714.539 4  23169469.204    23169466.350    23169468.116
        29.200          26.500
 -24045380.881 7 -18736651.343 7  19911378.155    19911375.031    19911377.540
        46.800          46.300
 08  1  1  0  2  0.0000000  0  9G 6G21G18G24G 8G 7G15G10G26
 -10306703.157 5  -8031193.060 4  22830116.531    22830113.943    22830115.424
        31.500          26.500
 -21971482.516 7 -17120629.888 7  20845961.259    20845956.714    20845960.214
        46.000          42.900
  -6385678.373 6  -4975850.922 5  22487179.582    22487175.252    22487178.603
        36.600          31.300
 -21028213.097 7 -16385612.682 7  20560723.420    20560721.294    20560722.617
        45.300          44.400
  -3263572.967 3  -2543040.872 2  24307478.722    24307474.930    24307477.632
        21.100          12.600
 -12338845.744 5  -9614679.948 5  22614273.007    22614270.520    22614271.857
        34.500          31.100
 -22582688.560 7 -17596890.640 8  20383922.589    20383919.096    20383922.187
        47.600          50.700
  -7362934.436 4  -5737340.459 4  23186166.628    23186163.860    23186165.430
        28.800          26.500
 -24029679.560 7 -18724416.544 7  19914366.072    19914362.899    19914365.426
        46.800          46.200
 08  1  1  0  2 30.0000000  0  9G 6G21G18G24G 8G 7G15G10G26
 -10222129.187 5  -7965291.277 4  22846210.301    22846207.720    22846209.602
        32.100          27.900
 -22026862.441 7 -17163783.075 7  20835422.962    20835418.238    20835421.834
        46.000          42.800
  -6456962.868 6  -5031397.260 5  22473614.784    22473610.724    22473613.826
        37.600          32.300
 -20999390.549 7 -16363153.556 7  20566208.226    20566206.052    20566207.339
        45.200          44.400
  -3230717.393 3  -2517439.110 2  24313730.699    24313727.827    24313729.865
        22.100          16.100
 -12271456.029 5  -9562168.495 5  22627096.530    22627094.435    22627095.540
        34.300          31.600
 -22589505.590 7 -17602202.603 8  20382625.343    20382621.868    20382624.943
        47.700          50.700
  -7275091.703 4  -5668891.595 4  23202882.288    23202879.585    23202881.447
        29.000          27.100
 -24013304.416 7 -18711656.686 7  19917482.087    19917478.964    19917481.477
        46.800          46.200
 08  1  1  0  3  0.0000000  0  9G 6G21G18G24G 8G 7G15G10G26
 -10137278.214 5  -7899173.650 4  22862356.483    22862354.531    22862355.729
        31.000          28.400
 -22081852.771 7 -17206632.685 7  20824958.504    20824953.905    20824957.424
        45.700          42.800
  -6528078.680 6  -5086812.171 5  22460082.031    22460077.516    22460081.006
        37.700          31.800
 -20970131.886 7 -16340354.600 7  20571776.202    20571773.750    20571775.202
        45.300          44.300
  -3197305.247 3  -2491403.669 1  24320089.085    24320085.293    24320088.044
        23.400          11.000
 -12203699.026 5  -9509370.860 5  22639990.424    22639987.974    22639989.210
        33.900          31.300
 -22595770.499 7 -17607084.347 8  20381433.145    20381429.706    20381432.762
        47.500          50.800
  -7187154.173 4  -5600368.852 4  23219616.296    23219613.927    23219615.334
        29.500          26.200
 -23996256.615 7 -18698372.681 7  19920726.050    19920723.095    19920725.540
        46.700          46.100
 08  1  1  0  3 30.0000000  0  9G 6G21G18G24G 8G 7G15G10G26
 -10052153.097 5  -7832842.424 4  22878555.212    22878553.309    22878554.399
        30.400          28.400
 -22136451.347 7 -17249177.034 7  20814568.632    20814564.178    20814567.562
        45.900          42.900
  -6599025.486 6  -5142095.387 5  22446580.728    22446576.666    22446579.775
        36.600          31.800
 -20940436.945 7 -16317215.681 7  20577426.840    20577424.485    20577426.017
        45.600          44.300
  -3163337.672 3  -2464935.419 1  24326552.706    24326549.637    24326551.842
        22.100          11.000
 -12135577.405 5  -9456289.100 5  22652953.129    22652951.378    22652952.047
        33.400          31.100
 -22601483.673 7 -17611536.163 8  20380346.011    20380342.547    20380345.556
        47.600          50.800
  -7099122.439 4  -5531772.714 4  23236368.597    23236365.828    23236367.407
        28.600          26.800
 -23978537.595 7 -18684565.649 7  19924097.998    19924094.968    19924097.378
        46.800          46.200
 08  1  1  0  4  0.0000000  0  9G 6G21G18G24G 8G 7G15G10G26
  -9966756.642 4  -7766299.771 4  22894805.987    22894803.839    22894805.237
        28.800          28.100
 -22190655.517 7 -17291414.045 7  20804253.792    20804249.458    20804252.800
        45.900          43.100
  -6669802.446 6  -5197246.253 5  22433112.655    22433108.711    22433111.684
        37.300          32.700
 -20910305.723 7 -16293736.809 7  20583160.533    20583158.352    20583159.695
        45.400          44.400
  -3128815.747 3  -2438035.215 1  24333121.753    24333118.912    24333121.100
        21.600           9.000
 -12067093.555 5  -9402925.076 5  22665985.886    22665983.329    22665984.641
        34.000          30.600
 -22606645.876 7 -17615558.656 8  20379363.743    20379360.201    20379363.299
        47.800          50.800
  -7010997.635 4  -5463104.056 4  23253138.054    23253135.241    23253136.825
        28.800          26.800
 -23960148.710 7 -18670236.645 7  19927597.245    19927594.235    19927596.639
        46.600          46.300
 08  1  1  0  4 30.0000000  0  9G 6G21G18G24G 8G 7G15G10G26
  -9881091.822 4  -7699547.993 4  22911107.233    22911105.210    22911106.364
        29.000          27.600
 -22244463.321 7 -17333342.205 7  20794014.763    20794010.159    20794013.629
        45.800          43.100
  -6740409.210 6  -5252264.489 5  22419676.189    22419672.614    22419675.347
        37.200          32.700
 -20879738.410 7 -16269918.127 7  20588977.249    20588975.147    20588976.422
        45.200          44.400
  -3093740.330 3  -2410703.717 2  24339796.681    24339793.051    24339795.785
        23.000          16.100
 -11998250.088 5  -9349280.846 5  22679085.911    22679084.029    22679084.629
        32.100          30.800
 -22611257.453 7 -17619152.089 8  20378486.177    20378482.587    20378485.789
        47.800          50.700
  -6922780.400 4  -5394363.376 4  23269925.298    23269922.431    23269924.182
        29.000          26.200
 -23941091.191 7 -18655386.626 7  19931223.736    19931220.699    19931223.124
        46.600          46.100
 08  1  1  0  5  0.0000000  0  9G 6G21G18G24G 8G 7G15G10G26
  -9795161.238 5  -7632589.110 4  22927459.560    22927457.536    22927458.779
        30.200          26.500
 -22297872.831 7 -17374960.000 7  20783851.262    20783846.616    20783850.125
        45.700          43.100
  -6810845.336 6  -5307149.770 5  22406273.092    22406268.656    22406272.046
        37.500          32.100
 -20848735.068 7 -16245759.687 7  20594877.238    20594874.879    20594876.266
        45.200          44.400
  -3058112.691 3  -2382941.915 2  24346575.970    24346572.937    24346575.124
        19.900          15.100
 -11929049.558 5  -9295358.376 5  22692254.754    22692252.657    22692253.593
        32.400          31.500
 -22615318.461 7 -17622316.506 8  20377713.316    20377709.767    20377712.976
        47.700          50.700
  -6834471.926 4  -5325551.603 4  23286729.909    23286726.925    23286728.766
        28.600          26.200
 -23921366.504 7 -18640016.736 7  19934977.196    19934974.128    19934976.623
        46.600          46.100
 08  1  1  0  5 30.0000000  0  9G 6G21G18G24G 8G 7G15G10G26
  -9708967.806 4  -7565425.409 4  22943861.429    22943859.612    22943860.772
        29.200          28.400
 -22350881.646 7 -17416265.570 7  20773763.924    20773759.383    20773762.842
        45.900          43.200
  -6881110.585 6  -5361901.911 5  22392902.044    22392897.873    22392901.058
        37.700          32.800
 -20817295.653 7 -16221261.449 7  20600859.920    20600857.555    20600858.979
        45.100          44.100
  -3021933.866 3  -2354750.625 2  24353460.924    24353457.966    24353460.267
        21.100          12.600
 -11859494.365 5  -9241159.563 5  22705490.577    22705488.374    22705489.534
        33.100          30.400
 -22618829.969 7 -17625052.740 8  20377045.054    20377041.560    20377044.651
        47.800          50.700
  -6746072.506 4  -5256668.956 4  23303551.943    23303548.890    23303550.745
        27.600          26.200
 -23900976.064 7 -18624128.075 7  19938857.451    19938854.303    19938856.876
        46.800          46.100
 08  1  1  0  6  0.0000000  0  9G 6G21G18G24G 8G 7G15G10G26
  -9622514.561 4  -7498059.289 4  22960312.706    22960311.230    22960312.010
        28.100          28.400
 -22403487.783 7 -17457257.365 7  20763753.367    20763748.699    20763752.281
        45.900          43.200
  -6951203.966 6  -5416520.107 5  22379563.541    22379559.597    22379562.712
        37.900          32.800
 -20785420.120 7 -16196423.378 7  20606925.538    20606923.294    20606924.618
        45.100          44.000
  -2985204.764 3  -2326130.552 2  24360449.888    24360446.990    24360449.034
        19.300          15.100
 -11789587.155 5  -9186686.432 5  22718793.557    22718791.100    22718792.439
        32.700          30.100
 -22621792.412 7 -17627361.137 8  20376481.275    20376477.814    20376480.896
        47.700          50.700
  -6657583.235 4  -5187716.301 4  23320391.296    23320388.116    23320389.876
        29.000          26.800
 -23879921.395 7 -18607721.839 7  19942864.009    19942860.900    19942863.425
        46.700          46.200
 08  1  1  0  6 30.0000000  0  9G 6G21G18G24G 8G 7G15G10G26
  -9535804.153 4  -7430492.770 4  22976813.852    22976811.451    22976812.923
        29.200          27.100
 -22455689.181 7 -17497933.779 7  20753819.751    20753815.117    20753818.621
        45.800          43.400
  -7021125.140 6  -5471004.133 5  22366258.247    22366253.735    22366257.294
        38.400          32.400
 -20753108.727 7 -16171245.676 7  20613074.185    20613072.001    20613073.294
        45.000          44.100
  -2947926.666 3  -2297082.676 1  24367543.667    24367541.039    24367542.764
        18.600          11.000
 -11719330.549 5  -9131941.057 4  22732162.872    22732160.268    22732161.900
        33.200          29.200
 -22624206.152 7 -17629241.967 8  20376021.996    20376018.460    20376021.608
        47.700          50.600
  -6569005.053 4  -5118694.350 4  23337246.970    23337243.816    23337245.671
        28.600          25.900
 -23858203.988 7 -18590799.179 7  19946996.656    19946993.552    19946996.073
        46.600          46.100
 08  1  1  0  7  0.0000000  0  9G 6G21G18G24G 8G 7G15G10G26
  -9448839.590 5  -7362728.195 4  22993362.767    22993360.366    22993361.878
        30.100          26.500
 -22507483.722 7 -17538293.157 7  20743963.483    20743958.987    20743962.450
        45.900          43.600
  -7090873.781 6  -5525353.705 5  22352985.002    22352981.304    22352984.128
        37.500          33.000
 -20720361.432 7 -16145728.310 7  20619305.992    20619303.586    20619305.020
        45.100          44.000
  -2910100.768 3  -2267607.943 2  24374742.210    24374738.440    24374741.027
        19.900          12.600
 -11648726.973 5  -9076925.289 4  22745597.612    22745595.787    22745596.598
        31.600          29.000
 -22626071.556 8 -17630695.524 8  20375667.199    20375663.483    20375666.725
        48.000          50.500
  -6480338.612 4  -5049603.645 4  23354119.540    23354116.431    23354118.391
        28.400          27.100
 -23835825.183 7 -18573361.144 7  19951255.269    19951252.114    19951254.680
        46.600          46.100
 08  1  1  0  7 30.0000000  0  9G 6G21G18G24G 8G 7G15G10G26
  -9361623.706 5  -7294767.773 4  23009959.393    23009956.476    23009958.451
        30.100          26.500
 -22558869.388 7 -17578333.933 7  20734185.233    20734180.614    20734184.134
        45.900          43.700
  -7160449.554 6  -5579568.580 5  22339745.834    22339741.347    22339744.708
        37.800          33.200
 -20687178.555 7 -16119871.531 7  20625620.383    20625618.093    20625619.422
        45.100          44.000
  -2871728.008 3  -2237707.086 2  24382043.916    24382040.569    24382043.129
        19.300          15.100
 -11577779.061 5  -9021641.234 4  22759099.131    22759097.166    22759098.049
        32.600          29.900
 -22627389.558 8 -17631722.532 8  20375416.308    20375412.699    20375415.947
        48.100          50.600
  -6391585.079 4  -4980445.062 4  23371008.112    23371005.789    23371007.287
        27.600          26.200
 -23812786.828 7 -18555409.176 7  19955639.219    19955636.181    19955638.624
        46.600          46.100
 08  1  1  0  8  0.0000000  0  9G 6G21G18G24G 8G 7G15G10G26
  -9274159.223 4  -7226613.650 4  23026602.739    23026600.856    23026602.085
        29.000          26.200
 -22609843.744 7 -17618054.206 7  20724485.228    20724480.492    20724484.099
        45.800          43.700
  -7229851.856 6  -5633648.289 5  22326538.653    22326534.214    22326537.589
        37.700          32.100
 -20653560.218 7 -16093675.435 7  20632017.677    20632015.466    20632016.776
        45.100          44.100
  -2832810.062 3  -2207381.416 2  24389449.927    24389446.930    24389449.167
        20.500          15.100
 -11506489.493 5  -8966090.929 5  22772664.613    22772663.173    22772663.550
        31.300          30.100
 -22628160.740 8 -17632323.449 8  20375269.483    20375265.961    20375269.203
        48.100          50.600
  -6302744.836 4  -4911218.933 4  23387913.918    23387911.866    23387912.920
        27.400          26.200
 -23789090.178 7 -18536944.252 7  19960148.455    19960145.534    19960147.907
        46.600          46.000
 08  1  1  0  8 30.0000000  0  9G 6G21G18G24G 8G 7G15G10G26
  -9186449.185 4  -7158268.199 4  23043293.785    23043291.681    23043292.967
        27.900          26.800
 -22660405.415 7 -17657452.908 7  20714863.387    20714858.864    20714862.361
        45.700          43.600
  -7299080.024 6  -5687592.298 5  22313364.833    22313360.777    22313363.856
        38.000          33.100
 -20619506.528 7 -16067140.105 7  20638497.986    20638495.698    20638497.101
        45.200          43.900
  -2793347.997 3  -2176631.754 2  24396959.467    24396956.061    24396958.480
        22.100          17.000
 -11434860.768 5  -8910276.378 4  22786296.113    22786293.558    22786294.869
        32.800          29.700
 -22628385.576 8 -17632498.641 8  20375226.922    20375223.153    20375226.405
        48.000          50.500
  -6213818.790 4  -4841925.918 4  23404836.347    23404833.710    23404835.166
        27.600          26.200
 -23764736.818 7 -18517967.602 7  19964782.787    19964779.816    19964782.235
        46.600          46.100
 08  1  1  0  9  0.0000000  0  9G 6G21G18G24G 8G 7G15G10G26
  -9098496.264 4  -7089733.485 4  23060030.798    23060028.623    23060029.760
        29.500          27.100
 -22710551.937 7 -17696528.116 7  20705320.930    20705316.368    20705319.860
        45.900          43.700
  -7368133.419 6  -5741400.124 5  22300224.675    22300220.279    22300223.646
        38.400          33.100
 -20585017.131 7 -16040265.258 7  20645061.186    20645058.832    20645060.210
        45.100          43.900
  -2753342.786 3  -2145458.868 2  24404572.453    24404569.103    24404571.308
        21.100          13.900
 -11362895.501 5  -8854199.560 4  22799990.129    22799987.772    22799988.937
        31.500          28.800
 -22628064.755 8 -17632248.646 8  20375287.793    20375284.192    20375287.408
        48.000          50.600
  -6124807.803 4  -4772566.735 4  23421774.869    23421771.399    23421773.639
        27.600          25.600
 -23739728.533 7 -18498480.625 7  19969541.646    19969538.741    19969541.122
        46.600          46.000
 08  1  1  0  9 30.0000000  0  9G 6G21G18G24G 8G 7G15G10G26
  -9010303.540 4  -7021011.910 4  23076812.893    23076810.953    23076812.138
        29.500          27.400
 -22760281.068 7 -17735278.085 7  20695857.727    20695853.187    20695856.670
        45.800          43.800
  -7437011.416 6  -5795071.282 5  22287117.597    22287113.176    22287116.568
        38.500          33.100
 -20550092.689 7 -16013051.417 7  20651706.943    20651704.734    20651706.030
        45.000          43.900
  -2712795.975 3  -2113863.939 2  24412288.461    24412284.779    24412287.183
        22.600          13.900
 -11290596.360 5  -8797862.599 4  22813748.845    22813746.057    22813747.488
        32.800          29.200
 -22627198.773 7 -17631573.851 8  20375452.461    20375448.990    20375452.108
        47.800          50.600
  -6035712.927 4  -4703142.173 4  23438729.095    23438726.092    23438727.605
        26.500          24.900
 -23714066.840 7 -18478484.494 7  19974425.055    19974421.970    19974424.424
        46.600          46.000
 08  1  1  0 10  0.0000000  0  9G 6G21G18G24G 8G 7G15G10G26
  -8921873.731 4  -6952105.586 4  23093641.147    23093638.687    23093640.267
        29.500          25.900
 -22809590.882 7 -17773701.316 7  20686474.454    20686469.793    20686473.363
        45.800          43.800
  -7505714.383 6  -5848606.054 5  22274043.644    22274039.595    22274042.816
        38.900          34.000
 -20514733.281 7 -15985498.644 7  20658435.620    20658433.436    20658434.690
        45.000          43.800
  -2671708.770 3  -2081847.928 1  24420105.813    24420103.239    24420105.306
        21.100          11.000
 -11217965.954 5  -8741267.490 4  22827569.199    22827567.436    22827567.829
        31.000          29.700
 -22625788.369 7 -17630474.829 8  20375720.901    20375717.385    20375720.515
        47.800          50.700
  -5946534.694 4  -4633652.659 4  23455698.606    23455695.980    23455697.465
        27.100          25.300
 -23687753.469 7 -18457980.566 7  19979432.256    19979429.184    19979431.672
        46.600          45.800
 08  1  1  0 10 30.0000000  0  9G 6G21G18G24G 8G 7G15G10G26
  -8833209.871 4  -6883016.875 4  23110512.676    23110510.481    23110512.017
        28.100          24.600
 -22858479.079 7 -17811796.010 7  20677171.355    20677166.766    20677170.285
        45.900          44.000
  -7574241.270 6  -5902003.612 5  22261003.417    22260999.361    22261002.497
        38.600          33.600
 -20478938.897 7 -15957606.926 7  20665247.120    20665244.837    20665246.199
        45.300          43.700
  -2630082.623 3  -2049411.950 2  24428027.920    24428024.283    24428026.734
        19.900          15.100
 -11145006.840 5  -8684416.270 4  22841453.481    22841450.787    22841452.256
        33.200          29.200
 -22623834.343 7 -17628952.209 8  20376092.729    20376089.203    20376092.384
        47.700          50.600
  -5857273.834 4  -4564098.775 4  23472684.353    23472681.988    23472683.480
        27.100          25.300
 -23660790.175 7 -18436970.203 7  19984563.163    19984560.167    19984562.606
        46.500          45.700
 08  1  1  0 11  0.0000000  0  9G 6G21G18G24G 8G 7G15G10G26
  -8744314.662 4  -6813747.909 4  23127429.516    23127427.154    23127428.666
        26.800          25.600
 -22906943.852 7 -17849560.768 7  20667948.793    20667944.263    20667947.768
        46.000          44.200
  -7642591.387 6  -5955263.430 5  22247996.700    22247992.609    22247995.904
        39.100          33.600
 -20442709.813 7 -15929376.478 7  20672141.358    20672138.944    20672140.478
        45.400          43.500
  -2587918.674 3  -2016556.918 2  24436050.980    24436047.734    24436050.276
        21.600          16.100
 -11071721.755 5  -8627311.032 4  22855398.550    22855396.821    22855397.306
        30.800          29.500
 -22621337.367 7 -17627006.507 8  20376568.035    20376564.323    20376567.491
        47.600          50.500
  -5767931.110 4  -4494481.091 4  23489685.880    23489683.184    23489684.762
        27.600          24.200
 -23633178.392 7 -18415454.525 7  19989817.434    19989814.517    19989816.896
        46.700          45.800
 08  1  1  0 11 30.0000000  0  9G 6G21G18G24G 8G 7G15G10G26
  -8655191.192 4  -6744301.073 4  23144389.122    23144386.807    23144388.220
        27.600          26.800
 -22954983.341 7 -17886994.130 7  20658807.389    20658802.616    20658806.244
        45.900          44.300
  -7710764.448 6  -6008385.291 5  22235024.016    22235019.852    22235023.070
        39.000          33.800
 -20406046.280 7 -15900807.497 7  20679118.248    20679115.789    20679117.378
        45.300          43.400
  -2545218.263 3  -1983283.887 2  24444177.018    24444173.479    24444176.038
        21.600          17.000
 -10998113.297 5  -8569953.813 4  22869406.594    22869403.721    22869405.338
        32.800          28.100
 -22618298.290 7 -17624638.391 8  20377146.104    20377142.667    20377145.804
        47.700          50.600
  -5678507.730 4  -4424800.555 4  23506702.594    23506700.021    23506701.509
        26.500          24.600
 -23604920.133 7 -18393435.100 7  19995194.827    19995191.904    19995194.244
        46.500          45.700
 08  1  1  0 12  0.0000000  0  9G 6G21G18G24G 8G 7G15G10G26
  -8565842.206 4  -6674678.512 4  23161391.487    23161389.736    23161390.826
        28.600          26.200
 -23002595.312 7 -17924094.368 7  20649747.081    20649742.338    20649745.990
        46.100          44.200
  -7778759.990 6  -6061368.815 5  22222084.932    22222080.741    22222083.886
        38.900          33.800
 -20368948.565 7 -15871900.193 7  20686177.701    20686175.277    20686176.798
        45.100          43.400
  -2501982.916 3  -1949594.021 1  24452404.416    24452401.126    24452403.212
        18.600          11.000
 -10924184.113 5  -8512346.696 4  22883474.183    22883471.998    22883472.876
        31.000          28.100
 -22614717.549 7 -17621848.199 8  20377827.635    20377824.072    20377827.215
        47.800          50.500
  -5589004.186 4  -4355057.570 4  23523734.385    23523732.033    23523733.436
        26.800          26.200
 -23576016.954 7 -18370913.139 7  20000695.089    20000691.925    20000694.428
        46.700          45.500
 08  1  1  0 12 30.0000000  0  9G 6G21G18G24G 8G 7G15G10G26
  -8476270.584 4  -6604882.460 4  23178436.821    23178434.194    23178435.865
        29.000          25.900
 -23049777.726 7 -17960859.884 7  20640768.433    20640763.801    20640767.402
        46.000          44.300
  -7846577.447 6  -6114213.585 5  22209179.751    22209175.268    22209178.627
        38.900          34.400
 -20331416.797 7 -15842654.661 7  20693319.657    20693317.377    20693318.788
        45.100          43.300
  -2458213.933 3  -1915488.318 2  24460733.697    24460729.873    24460732.558
        20.500          15.100
 -10849936.881 5  -8454491.736 4  22897603.858    22897601.283    22897602.500
        31.600          29.900
 -22610595.895 7 -17618636.514 8  20378611.950    20378608.355    20378611.539
        47.700          50.500
  -5499421.082 4  -4285252.575 4  23540782.073    23540779.172    23540780.709
        27.100          24.600
 -23546470.750 7 -18347890.118 7  20006317.611    20006314.337    20006317.038
        46.800          45.500
 08  1  1  0 13  0.0000000  0  9G 6G21G18G24G 8G 7G15G10G26
  -8386479.318 4  -6534915.278 4  23195523.107    23195521.321    23195522.419
        27.600          26.200
 -23096528.570 7 -17997289.113 7  20631872.180    20631867.384    20631871.091
        46.000          44.500
  -7914216.444 6  -6166919.285 5  22196308.264    22196304.242    22196307.251
        38.700          34.100
 -20293451.031 7 -15813070.949 7  20700544.386    20700542.080    20700543.472
        45.000          43.400
  -2413912.592 3  -1880967.782 2  24469163.557    24469160.286    24469162.769
        20.500          12.600
 -10775374.262 5  -8396391.023 4  22911791.750    22911789.269    22911790.773
        31.600          27.900
 -22605934.455 7 -17615004.214 8  20379499.157    20379495.396    20379498.685
        47.800          50.600
  -5409759.344 4  -4215386.309 4  23557843.735    23557841.087    23557842.569
        27.600          25.600
 -23516283.272 7 -18324367.406 7  20012062.012    20012058.850    20012061.453
        46.800          45.500
 08  1  1  0 13 30.0000000  0  9G 6G21G18G24G 8G 7G15G10G26
  -8296471.306 4  -6464779.178 3  23212650.710    23212648.936    23212649.904
        27.100          23.800
 -23142845.799 7 -18033380.462 7  20623058.256    20623053.544    20623057.216
        45.900          44.500
  -7981676.362 6  -6219485.447 5  22183471.268    22183466.773    22183470.262
        39.200          34.100
 -20255051.658 7 -15783149.366 7  20707851.484    20707849.241    20707850.586
        45.100          43.200
  -2369080.429 3  -1846033.600 2  24477694.444    24477691.628    24477693.364
        19.900          17.000
 -10700498.932 5  -8338046.631 5  22926040.254    22926038.448    22926039.229
        32.000          30.200
 -22600733.770 7 -17610951.729 8  20380488.722    20380485.093    20380488.365
        47.900          50.500
  -5320019.835 4  -4145459.441 4  23574920.879    23574918.063    23574919.663
        26.500          24.200
 -23485456.237 7 -18300346.333 7  20017928.076    20017925.099    20017927.559
        46.600          45.500
 08  1  1  0 14  0.0000000  0  9G 6G21G18G24G 8G 7G15G10G26
  -8206249.331 4  -6394476.358 4  23229820.315    23229817.446    23229819.383
        28.400          24.600
 -23188727.560 7 -18069132.479 7  20614327.212    20614322.549    20614326.170
        45.900          44.700
  -8048956.395 6  -6271911.442 5  22170667.866    22170663.891    22170667.042
        39.300          34.000
 -20216219.198 7 -15752890.316 7  20715241.259    20715238.838    20715240.195
        45.100          43.400
  -2323718.973 3  -1810687.037 2  24486327.681    24486323.770    24486325.923
        21.100          16.100
 -10625313.633 5  -8279460.711 4  22940347.809    22940344.990    22940346.674
        31.800          27.600
 -22594994.653 7 -17606479.684 8  20381580.851    20381577.190    20381580.437
        47.900          50.600
  -5230203.179 4  -4075472.476 3  23592011.975    23592009.699    23592010.832
        25.900          23.400
 -23453991.540 7 -18275828.386 7  20023915.736    20023912.653    20023915.086
        46.600          45.500
 08  1  1  0 14 30.0000000  0  9G 6G21G18G24G 8G 7G15G10G26
  -8115816.303 4  -6324009.088 4  23247028.984    23247026.610    23247027.878
        28.400          24.900
 -23234171.819 7 -18104543.590 7  20605679.321    20605674.797    20605678.344
        45.800          44.800
  -8116056.399 6  -6324197.148 5  22157899.508    22157895.300    22157898.599
        39.800          34.500
 -20176953.814 7 -15722293.923 7  20722713.157    20722710.755    20722712.197
        45.300          43.300
  -2277829.851 3  -1774929.254 2  24495058.553    24495055.928    24495058.130
        23.400          17.000
 -10549821.042 5  -8220635.356 4  22954713.521    22954711.446    22954712.460
        30.800          28.600
 -22588718.399 7 -17601589.093 8  20382775.143    20382771.553    20382774.747
        47.900          50.500
  -5140310.323 4  -4005426.115 4  23609118.494    23609115.881    23609117.297
        26.200          24.200
 -23421891.170 7 -18250815.108 7  20030024.194    20030021.171    20030023.593
        46.600          45.500
 08  1  1  0 15  0.0000000  0 10G 6G21G 9G18G24G 8G 7G15G10G26
  -8025175.229 4  -6253379.706 4  23264276.988    23264275.235    23264276.448
        27.400          25.900
 -23279176.188 7 -18139611.930 7  20597115.274    20597110.805    20597114.255
        45.600          44.700
   -158062.747 3   -123165.391 3  24707874.832    24707874.311    24707875.127
        21.600          19.900
  -8182975.901 6  -6376342.205 5  22145165.122    22145160.745    22145164.133
        39.300          34.000
 -20137255.761 7 -15691360.386 7  20730267.451    20730264.999    20730266.533
        45.200          43.000
  -2231414.397 2  -1738761.345 2  24503891.823    24503888.839    24503890.657
        17.800          15.100
 -10474023.827 5  -8161572.599 4  22969137.246    22969134.969    22969135.941
        30.400          27.600
 -22581905.214 7 -17596280.115 8  20384071.609    20384068.066    20384071.180
        47.700          50.500
  -5050341.664 4  -3935320.694 3  23626239.389    23626236.179    23626238.050
        24.900          23.800
 -23389156.882 7 -18225307.868 7  20036253.355    20036250.313    20036252.723
        46.700          45.500
 08  1  1  0 15 30.0000000  0 10G 6G21G 9G18G24G 8G 7G15G10G26
  -7934328.973 4  -6182590.438 4  23281564.003    23281562.266    23281563.576
        26.200          25.300
 -23323738.857 7 -18174336.087 7  20588635.458    20588630.761    20588634.351
        45.500          44.800
   -276650.196 3   -215571.160 2  24685307.972    24685307.810    24685308.552
        20.500          17.800
  -8249713.780 6  -6428345.745 5  22132465.506    22132460.955    22132464.505
        39.800          34.000
 -20097125.281 7 -15660089.888 7  20737904.102    20737901.622    20737903.082
        45.100          43.000
  -2184474.017 3  -1702184.435 2  24512824.244    24512821.024    24512823.263
        20.500          15.100
 -10397924.596 5  -8102274.532 4  22983618.579    22983615.603    22983617.409
        31.500          26.500
 -22574556.232 7 -17590553.631 8  20385469.973    20385466.469    20385469.607
        47.700          50.400
  -4960298.200 4  -3865157.004 4  23643373.761    23643371.055    23643372.655
        25.900          24.200
 -23355790.636 7 -18199308.191 7  20042602.602    20042599.692    20042602.090
        46.400          45.500
 08  1  1  0 16  0.0000000  0 10G 6G21G 9G18G24G 8G 7G15G10G26
  -7843280.337 4  -6111643.483 4  23298890.261    23298888.726    23298889.583
        25.900          25.900
 -23367858.097 7 -18208714.716 7  20580239.802    20580235.083    20580238.732
        45.900          44.800
   -395268.631 3   -308001.089 2  24662737.223    24662735.399    24662736.028
        19.300          13.900
  -8316270.227 6  -6480207.907 5  22119800.172    22119795.772    22119799.047
        39.800          34.500
 -20056562.568 7 -15628482.590 7  20745622.628    20745620.517    20745621.824
        45.200          43.100
  -2137010.296 3  -1665199.710 2  24521855.900    24521853.332    24521855.309
        20.500          16.100
 -10321526.214 4  -8042743.341 4  22998156.506    22998154.699    22998155.281
        29.200          27.600
 -22566672.315 7 -17584410.315 8  20386970.281    20386966.721    20386969.821
        47.600          50.400
  -4870180.634 4  -3794935.562 3  23660522.358    23660519.807    23660521.377
        26.500          22.600
 -23321794.415 7 -18172817.625 7  20049071.811    20049068.931    20049071.319
        46.500          45.500
 08  1  1  0 16 30.0000000  0 10G 6G21G 9G18G24G 8G 7G15G10G26
  -7752032.294 4  -6040541.144 4  23316254.993    23316252.462    23316254.013
        27.900          25.300
 -23411531.635 7 -18242746.042 7  20571928.947    20571924.245    20571927.834
        45.700          44.900
   -513915.166 3   -400452.911 1  24640160.110    24640156.968    24640158.842
        18.600          11.000
  -8382644.514 6  -6531928.124 5  22107169.407    22107165.114    22107168.432
        39.900          34.500
 -20015568.013 7 -15596538.788 7  20753423.696    20753421.499    20753422.811
        44.900          43.000
  -2089024.915 3  -1627808.487 2  24530987.669    24530984.157    24530986.337
        22.600          13.900
 -10244831.245 4  -7982981.048 4  23012750.829    23012748.349    23012749.781
        29.200          27.100
 -22558254.460 7 -17577850.942 8  20388572.111    20388568.565    20388571.745
        47.800          50.300
  -4779989.871 4  -3724657.064 3  23677685.092    23677682.755    23677684.025
        26.800          23.800
 -23287170.037 7 -18145837.593 7  20055660.756    20055657.723    20055660.129
        46.400          45.400
 08  1  1  0 17  0.0000000  0 10G 6G21G 9G18G24G 8G 7G15G10G26
  -7660587.747 4  -5969285.677 3  23333655.996    23333653.431    23333655.109
        27.600          23.800
 -23454757.680 7 -18276428.677 7  20563703.094    20563698.595    20563702.125
        45.700          44.900
   -632586.780 3   -492924.305 2  24617576.617    24617574.817    24617575.507
        22.600          16.100
  -8448836.080 6  -6583505.962 5  22094573.456    22094569.476    22094572.521
        39.900          34.900
 -19974142.063 7 -15564258.836 7  20761306.766    20761304.589    20761305.891
        44.900          42.900
  -2040519.373 3  -1590011.996 2  24540217.295    24540214.737    24540217.057
        22.600          17.000
 -10167842.567 4  -7922989.895 4  23027400.878    23027399.664    23027399.738
        29.700          27.900
 -22549303.449 7 -17570876.129 8  20390275.437    20390271.884    20390275.103
        47.800          50.300
  -4689726.387 4  -3654321.901 3  23694861.493    23694859.163    23694860.527
        25.900          23.000
 -23251919.497 7 -18118369.635 7  20062368.628    20062365.615    20062368.052
        46.400          45.200
 08  1  1  0 17 30.0000000  0 10G 6G21G 9G18G24G 8G 7G15G10G26
  -7568949.665 4  -5897879.398 4  23351093.750    23351092.416    23351093.073
        27.400          24.900
 -23497534.237 7 -18309761.059 7  20555563.116    20555558.515    20555562.078
        45.700          45.000
   -751280.461 3   -585412.882 2  24594990.885    24594988.073    24594989.768
        22.100          16.100
  -8514844.332 6  -6634940.953 5  22082012.349    22082008.321    22082011.533
        39.800          34.600
 -19932284.890 7 -15531642.871 7  20769271.956    20769269.745    20769271.071
        45.100          42.700
  -1991495.335 3  -1551811.436 3  24549547.526    24549543.900    24549545.094
        19.300          19.900
 -10090562.802 5  -7862771.924 4  23042107.189    23042105.505    23042106.299
        30.600          27.600
 -22539820.279 7 -17563486.639 8  20392080.065    20392076.501    20392079.687
        47.800          50.400
  -4599390.966 4  -3583930.694 3  23712051.652    23712049.521    23712050.596
        26.500          22.600
 -23216044.724 7 -18090415.266 7  20069195.429    20069192.388    20069194.733
        46.400          45.200
 08  1  1  0 18  0.0000000  0 10G 6G21G 9G18G24G 8G 7G15G10G26
  -7477120.923 4  -5826324.547 4  23368567.936    23368566.269    23368567.580
        27.400          24.200
 -23539859.168 7 -18342741.526 7  20547509.029    20547504.456    20547507.891
        45.600          45.300
   -869993.287 2   -677916.378 2  24572399.652    24572398.006    24572398.908
        17.800          17.800
  -8580668.720 6  -6686232.675 5  22069486.464    22069482.470    22069485.490
        39.700          34.700
 -19889996.866 7 -15498691.175 7  20777318.959    20777316.822    20777318.191
        44.800          42.600
  -1941954.102 3  -1513207.877 2  24558973.623    24558971.231    24558973.271
        21.100          17.800
 -10012994.769 5  -7802329.316 4  23056868.310    23056866.010    23056867.178
        30.600          27.100
 -22529805.912 7 -17555683.231 8  20393985.631    20393982.185    20393985.283
        47.700          50.300
  -4508984.351 4  -3513484.002 3  23729255.616    23729253.179    23729254.598
        25.600          21.100
 -23179547.865 7 -18061976.153 7  20076140.562    20076137.502    20076139.919
        46.400          45.100
 08  1  1  0 18 30.0000000  0 10G 6G21G 9G18G24G 8G 7G15G10G26
  -7385104.366 4  -5754623.363 4  23386078.880    23386076.494    23386078.010
        25.900          25.600
 -23581730.810 7 -18375368.778 7  20539540.983    20539536.607    20539539.975
        45.500          45.400
   -988722.202 2   -770432.370 3  24549806.342    24549805.448    24549805.808
        17.000          19.300
  -8646308.775 6  -6737380.757 5  22056995.525    22056991.531    22056994.586
        39.700          34.800
 -19847278.684 7 -15465404.288 7  20785448.562    20785445.869    20785447.434
        44.900          42.700
  -1891897.738 3  -1474202.921 2  24568500.161    24568496.376    24568498.787
        22.100          15.100
  -9935141.110 5  -7741664.155 4  23071684.025    23071681.108    23071682.594
        30.600          27.600
 -22519261.275 7 -17547466.627 8  20395992.261    20395988.721    20395991.884
        47.600          50.100
  -4418507.262 4  -3442982.405 3  23746472.901    23746470.482    23746471.836
        26.200          23.400
 -23142430.975 7 -18033053.902 7  20083203.664    20083200.587    20083203.043
        46.500          45.100
 08  1  1  0 19  0.0000000  0 10G 6G21G 9G18G24G 8G 7G15G10G26
  -7292902.925 4  -5682778.123 4  23403623.406    23403622.576    23403622.718
        25.600          25.900
 -23623147.025 7 -18407641.156 7  20531659.731    20531655.334    20531658.671
        45.500          45.400
  -1107463.908 2   -862958.328 2  24527210.740    24527208.953    24527210.143
        17.800          13.900
  -8711764.102 6  -6788384.899 5  22044539.848    22044535.806    22044538.792
        39.700          35.100
 -19804130.786 7 -15431782.558 7  20793659.101    20793656.655    20793658.150
        44.900          42.600
  -1841327.585 3  -1434797.593 2  24578123.297    24578119.763    24578121.772
        20.500          16.100
  -9857004.701 4  -7680778.657 4  23086552.176    23086549.833    23086551.065
        29.900          26.500
 -22508187.314 7 -17538837.563 8  20398099.586    20398095.997    20398099.188
        47.700          50.100
  -4327960.328 4  -3372426.387 3  23763702.644    23763701.255    23763701.893
        25.300          22.600
 -23104696.008 7 -18003650.026 7  20090384.217    20090381.338    20090383.693
        46.600          45.100
 08  1  1  0 19 30.0000000  0 10G 6G21G 9G18G24G 8G 7G15G10G26
  -7200519.569 4  -5610791.135 4  23421204.264    23421201.702    23421203.260
        26.500          25.300
 -23664105.949 7 -18439557.198 7  20523865.412    20523861.065    20523864.374
        45.400          45.500
  -1226215.493 3   -955492.020 2  24504611.887    24504610.881    24504612.199
        19.300          13.900
  -8777034.041 6  -6839244.579 5  22032119.735    22032115.309    22032118.570
        40.200          34.900
 -19760553.192 7 -15397826.001 7  20801951.601    20801949.200    20801950.593
        44.700          42.400
  -1790245.504 3  -1394993.368 3  24587842.806    24587840.391    24587842.600
        19.900          18.600
  -9778588.153 4  -7619674.881 4  23101474.015    23101472.497    23101472.733
        29.200          27.600
 -22496585.192 7 -17529796.942 8  20400307.453    20400303.825    20400307.028
        47.800          50.200
  -4237344.496 4  -3301816.683 3  23780947.330    23780944.662    23780945.979
        24.200          22.600
 -23066345.196 7 -17973766.270 7  20097682.322    20097679.231    20097681.758
        46.400          45.000
 08  1  1  0 20  0.0000000  0 10G 6G21G 9G18G24G 8G 7G15G10G26
  -7107957.103 4  -5538664.583 4  23438817.590    23438816.705    23438817.062
        25.900          25.600
 -23704605.943 7 -18471115.638 7  20516158.669    20516154.183    20516157.641
        45.600          45.600
  -1344973.711 3  -1048030.924 2  24482014.420    24482011.754    24482013.249
        23.400          15.100
  -8842118.214 6  -6889959.507 5  22019734.341    22019730.231    22019733.378
        40.400          35.400
 -19716546.539 7 -15363535.122 7  20810325.463    20810323.331    20810324.639
        44.800          42.300
  -1738653.001 2  -1354791.397 2  24597662.684    24597658.071    24597660.796
        13.900          12.600
  -9699894.277 4  -7558355.001 4  23116449.182    23116446.836    23116447.836
        27.600          26.800
 -22484455.827 7 -17520345.486 8  20402615.672    20402611.975    20402615.219
        47.800          50.100
  -4146660.270 4  -3231153.694 3  23798203.625    23798201.540    23798202.711
        26.200          22.600
 -23027380.501 7 -17943404.171 7  20105097.156    20105094.000    20105096.500
        46.300          45.200
 08  1  1  0 20 30.0000000  0 10G 6G21G 9G18G24G 8G 7G15G10G26
  -7015218.560 4  -5466400.817 3  23456466.204    23456463.295    23456465.089
        25.300          20.500
 -23744644.834 7 -18502314.775 7  20508539.664    20508535.076    20508538.573
        45.500          45.600
  -1463735.744 3  -1140572.766 2  24459416.072    24459411.819    24459414.027
        23.800          17.000
  -8907015.537 6  -6940528.845 5  22007384.729    22007380.701    22007383.761
        40.500          35.800
 -19672111.076 7 -15328910.112 7  20818781.614    20818779.226    20818780.636
        44.900          42.500
  -1686551.981 2  -1314193.207 2  24607574.322    24607572.385    24607574.002
        17.800          17.000
  -9620925.947 4  -7496821.279 4  23131475.972    23131474.400    23131474.829
        27.900          27.400
 -22471800.175 7 -17510483.936 8  20405023.856    20405020.269    20405023.501
        47.700          50.000
  -4055908.459 4  -3160438.031 3  23815473.230    23815471.099    23815472.337
        25.300          22.100
 -22987804.009 7 -17912565.348 7  20112628.228    20112625.106    20112627.653
        46.500          44.900
 08  1  1  0 21  0.0000000  0 10G 6G21G 9G18G24G 8G 7G15G10G26
  -6922306.729 4  -5394001.993 3  23474146.451    23474144.010    23474145.562
        27.100          19.300
 -23784220.564 7 -18533153.004 7  20501008.526    20501004.016    20501007.509
        45.600          45.600
  -1582498.673 3  -1233115.335 3  24436815.362    24436812.399    24436813.984
        23.000          19.300
  -8971725.844 6  -6990952.444 5  21995070.689    21995066.754    21995069.747
        40.400          35.600
 -19627247.353 7 -15293951.386 7  20827318.910    20827316.527    20827318.026
        45.100          42.400
  -1633944.043 3  -1273200.015 2  24617587.053    24617583.398    24617586.209
        19.300          16.100
  -9541685.821 5  -7435075.734 4  23146555.576    23146553.561    23146554.444
        30.100          28.400
 -22458619.410 7 -17500213.205 8  20407532.005    20407528.455    20407531.646
        47.800          50.000
  -3965089.593 4  -3089670.113 3  23832756.201    23832753.066    23832755.145
        26.800          21.100
 -22947617.789 7 -17881251.408 7  20120275.324    20120272.261    20120274.772
        46.400          44.900
 08  1  1  0 21 30.0000000  0 10G 6G21G 9G18G24G 8G 7G15G10G26
  -6829224.663 4  -5321470.519 3  23491858.561    23491857.037    23491858.027
        25.600          21.100
 -23823331.337 7 -18563628.930 7  20493566.242    20493561.500    20493565.066
        45.400          45.600
  -1701259.103 4  -1325655.921 3  24414214.876    24414213.765    24414214.430
        24.900          22.600
  -9036248.551 6  -7041229.871 5  21982792.846    21982788.406    21982791.821
        41.300          35.600
 -19581955.916 7 -15258659.371 7  20835937.572    20835935.187    20835936.651
        44.900          42.100
  -1580830.988 3  -1231813.235 2  24627694.304    24627690.404    24627692.666
        19.900          17.000
  -9462176.703 5  -7373120.612 4  23161685.043    23161683.425    23161684.015
        30.200          27.100
 -22444914.530 7 -17489534.073 8  20410140.046    20410136.364    20410139.619
        47.800          49.900
  -3874204.756 4  -3018850.817 3  23850049.977    23850048.398    23850049.005
        24.900          23.400
 -22906824.244 7 -17849464.226 7  20128038.110    20128035.041    20128037.522
        46.200          44.900
 08  1  1  0 22  0.0000000  0 10G 6G21G 9G18G24G 8G 7G15G10G26
  -6735975.104 4  -5248808.548 3  23509604.346    23509601.771    23509603.223
        25.900          23.400
 -23861975.357 7 -18593741.154 7  20486212.265    20486207.833    20486211.245
        45.500          45.700
  -1820014.330 3  -1418192.426 3  24391616.146    24391615.266    24391616.010
        20.500          21.100
  -9100583.340 6  -7091360.868 5  21970549.946    21970545.959    21970549.049
        40.700          35.900
 -19536237.067 7 -15223034.309 7  20844637.623    20844635.249    20844636.660
        44.900          42.100
  -1527214.487 3  -1190034.096 2  24637895.090    24637893.232    24637895.700
        18.600          17.000
  -9382401.434 5  -7310958.076 4  23176866.335    23176864.361    23176864.993
        30.200          27.900
 -22430686.258 7 -17478447.106 8  20412847.466    20412843.891    20412847.162
        47.700          50.000
  -3783254.199 4  -2947980.298 3  23867358.543    23867355.315    23867357.185
        24.600          20.500
 -22865425.534 7 -17817205.491 7  20135916.051    20135913.008    20135915.483
        46.400          44.900
 08  1  1  0 22 30.0000000  0 10G 6G21G 9G18G24G 8G 7G15G10G26
  -6642561.075 4  -5176018.441 3  23527380.309    23527378.455    23527379.460
        27.100          23.800
 -23900150.627 7 -18623488.116 7  20478947.908    20478943.258    20478946.785
        45.600          45.900
  -1938761.053 3  -1510722.314 4  24369018.196    24369019.035    24369019.004
        20.500          24.200
  -9164729.584 6  -7141344.945 5  21958343.256    21958339.218    21958342.332
        40.600          35.900
 -19490091.196 7 -15187076.498 7  20853418.786    20853416.512    20853417.860
        44.600          42.300
  -1473096.151 3  -1147863.976 2  24648196.695    24648191.867    24648194.471
        20.500          12.600
  -9302362.741 4  -7248590.293 4  23192097.037    23192094.776    23192095.912
        28.800          26.500
 -22415936.502 7 -17466953.785 8  20415654.433    20415650.701    20415653.971
        47.600          49.900
  -3692238.863 4  -2877059.263 3  23884677.989    23884675.355    23884676.690
        25.300          23.000
 -22823423.482 7 -17784476.619 7  20143908.933    20143905.719    20143908.274
        46.400          44.900
 08  1  1  0 23  0.0000000  0 10G 6G21G 9G18G24G 8G 7G15G10G26
  -6548985.543 4  -5103102.457 4  23545186.877    23545184.978    23545186.030
        27.100          24.900
 -23937855.625 7 -18652868.634 7  20471772.781    20471768.259    20471771.737
        45.700          45.900
  -2057495.796 2  -1603242.844 3  24346424.662    24346424.219    24346424.449
        17.800          21.600
  -9228686.642 6  -7191181.600 6  21946172.597    21946168.634    21946171.639
        40.300          36.000
 -19443518.932 7 -15150786.433 7  20862281.085    20862278.951    20862280.241
        44.800          42.200
  -1418478.090 3  -1105304.465 3  24658587.757    24658585.010    24658586.792
        18.600          18.600
  -9222063.408 4  -7186019.402 4  23207378.083    23207375.848    23207376.792
        29.500          27.900
 -22400666.013 7 -17455054.702 8  20418560.319    20418556.625    20418559.892
        47.700          49.900
  -3601159.153 4  -2806088.130 3  23902009.197    23902006.889    23902008.332
        25.300          21.100
 -22780820.577 7 -17751279.545 7  20152015.758    20152012.808    20152015.270
        46.400          44.900
 08  1  1  0 23 30.0000000  0 10G 6G21G 9G18G24G 8G 7G15G10G26
  -6455251.212 4  -5030062.749 4  23563023.706    23563021.974    23563022.979
        26.200          24.600
 -23975088.148 7 -18681880.989 7  20464687.636    20464683.155    20464686.616
        45.500          46.000
  -2176215.503 2  -1695751.650 3  24323835.001    24323832.735    24323833.111
        17.800          21.100
  -9292453.832 6  -7240870.312 6  21934038.225    21934034.111    21934037.259
        40.300          36.300
 -19396520.869 7 -15114164.573 7  20871224.556    20871222.418    20871223.671
        44.900          42.200
  -1363362.302 3  -1062357.086 2  24669076.099    24669073.268    24669075.659
        18.600          12.600
  -9141506.275 4  -7123247.634 4  23222707.617    23222704.442    23222706.219
        28.400          24.900
 -22384875.974 7 -17442750.772 8  20421565.073    20421561.339    20421564.657
        47.600          49.800
  -3510016.098 4  -2735067.592 3  23919354.140    23919351.203    23919352.926
        24.900          22.600
 -22737619.131 7 -17717616.080 7  20160236.723    20160233.772    20160236.195
        46.400          44.900
 08  1  1  0 24  0.0000000  0 10G 6G21G 9G18G24G 8G 7G15G10G26
  -6361361.106 4  -4956901.665 3  23580890.805    23580888.794    23580890.118
        25.300          23.000
 -24011846.497 7 -18710523.858 7  20457692.824    20457688.322    20457691.721
        45.500          46.100
  -2294917.199 3  -1788246.443 3  24301245.869    24301244.343    24301244.980
        21.600          21.100
  -9356030.761 6  -7290410.767 6  21921939.892    21921935.848    21921938.963
        40.600          36.000
 -19349097.404 7 -15077211.237 7  20880249.056    20880246.894    20880248.108
        44.800          42.400
  -1307750.127 3  -1019022.955 2  24679660.296    24679656.042    24679658.404
        19.300          13.900
  -9060694.097 4  -7060277.125 4  23238085.264    23238083.119    23238083.792
        27.600          24.600
 -22368567.046 7 -17430042.513 8  20424668.532    20424664.777    20424668.023
        47.500          49.800
  -3418810.086 4  -2663998.010 3  23936709.402    23936707.062    23936708.248
        25.300          21.100
 -22693821.168 7 -17683487.794 7  20168571.289    20168568.248    20168570.706
        46.300          44.800
 08  1  1  0 24 30.0000000  0 10G 6G21G 9G18G24G 8G 7G15G10G26
  -6267318.199 3  -4883621.495 3  23598785.788    23598784.479    23598785.267
        19.900          23.000
 -24048128.777 7 -18738795.763 7  20450788.483    20450784.009    20450787.442
        45.600          46.300
  -2413597.913 3  -1880724.918 3  24278662.959    24278660.329    24278661.194
        23.400          21.100
  -9419416.807 6  -7339802.478 6  21909877.774    21909873.843    21909876.828
        40.900          36.300
 -19301248.967 7 -15039926.756 7  20889354.258    20889352.176    20889353.383
        44.800          42.300
  -1251643.476 2   -975303.481 1  24690335.030    24690332.826    24690334.580
        17.800          11.000
  -8979629.646 4  -6997110.039 3  23253511.437    23253508.557    23253510.175
        27.100          23.400
 -22351740.881 7 -17416931.210 8  20427870.284    20427866.744    20427869.877
        47.300          49.700
  -3327542.077 4  -2592880.120 3  23954077.589    23954074.927    23954076.579
        25.600          21.100
 -22649428.899 7 -17648896.413 7  20177018.750    20177015.801    20177018.233
        46.300          44.800
 08  1  1  0 25  0.0000000  0  9G 6G21G 9G18G24G 7G15G10G26
  -6173125.337 3  -4810224.510 3  23616710.491    23616708.638    23616709.843
        23.800          21.100
 -24083932.816 7 -18766695.015 7  20443975.190    20443970.727    20443974.149
        45.400          46.300
  -2532254.690 3  -1973184.745 2  24256083.754    24256080.148    24256081.569
        22.600          17.000
  -9482611.520 6  -7389045.108 6  21897852.417    21897848.290    21897851.452
        41.200          36.500
 -19252976.186 7 -15002311.617 7  20898540.178    20898538.144    20898539.370
        44.700          42.000
  -8898315.728 4  -6933748.571 4  23268984.440    23268982.696    23268983.274
        26.500          25.300
 -22334398.401 7 -17403417.588 8  20431170.462    20431166.946    20431170.082
        47.500          49.800
  -3236212.431 3  -2521714.206 3  23971456.763    23971454.549    23971455.709
        23.800          22.600
 -22604444.771 7 -17613843.847 7  20185579.021    20185575.988    20185578.419
        46.200          44.600
 08  1  1  0 25 30.0000000  0  9G 6G21G 9G18G24G 7G15G10G26
  -6078785.437 3  -4736712.900 3  23634662.855    23634660.846    23634661.952
        22.600          19.900
 -24119257.262 7 -18794220.556 7  20437253.192    20437248.693    20437252.122
        45.500          46.200
  -2650884.179 3  -2065623.290 2  24233508.049    24233505.629    24233506.337
        19.900          17.000
  -9545614.327 6  -7438138.194 6  21885863.454    21885859.256    21885862.479
        41.300          36.800
 -19204279.668 7 -14964366.283 7  20907806.932    20907804.774    20907806.055
        44.600          42.100
  -8816755.234 4  -6870194.970 3  23284504.936    23284502.866    23284503.884
        27.900          23.400
 -22316541.025 7 -17389502.745 8  20434568.534    20434565.082    20434568.230
        47.500          49.700
  -3144821.882 3  -2450500.838 3  23988847.493    23988844.902    23988846.564
        23.800          19.900
 -22558870.969 7 -17578331.790 7  20194251.363    20194248.364    20194250.816
        46.200          44.500
 08  1  1  0 26  0.0000000  0  9G 6G21G 9G18G24G 7G15G10G26
  -5984301.316 4  -4663088.929 3  23652643.292    23652640.901    23652642.184
        24.900          21.600
 -24154100.297 7 -18821370.972 7  20430622.774    20430618.292    20430621.760
        45.500          46.300
