     2.10           OBSERVATION DATA    G (GPS)             RINEX VERSION / TYPE
teqc  2007Feb5      UNAVCO Archive Ops  20070222 10:18:25UTCPGM / RUN BY / DATE
Solaris 5.10|UltraSparc IIIi|cc -xarch=v9 SC5.8|=+-|*Sparc  COMMENT
BIT 2 OF LLI FLAGS DATA COLLECTED UNDER A/S CONDITION       COMMENT
ALAM                                                        MARKER NAME
                                                            MARKER NUMBER
Wernicke, Brian     CALTECH                                 OBSERVER / AGENCY
3847A24878          TRIMBLE 4000SSI     7.19b               REC # / TYPE / VERS
0220143802          TRM29659.00     SCIS                    ANT # / TYPE
 -2158287.5021 -4595239.5611  3849706.7364                  APPROX POSITION XYZ
        0.1283        0.0000        0.0000                  ANTENNA: DELTA H/E/N
     1     1                                                WAVELENGTH FACT L1/2
     7    L1    L2    C1    P2    P1    S1    S2            # / TYPES OF OBSERV
    30.0000                                                 INTERVAL
RINEX file created by UNAVCO GPS Archive.                   COMMENT
For more information contact archive@unavco.org             COMMENT
Monument ID: EJEHTC9Q-13478-1999a                           COMMENT
UNAVCO 4-char name:   ALAM                                  COMMENT
4-char name from Log or data file: ALAM                     COMMENT
Monument location: 37.35795833 -115.15845821 1090.0161      COMMENT
Visit ID: 53696                                             COMMENT
                                                            COMMENT
NOTICE: If using these data for scientific purposes,        COMMENT
please acknowledge: R.A. Bennett, B.P. Wernicke, and        COMMENT
J.L. Davis; see also:                                       COMMENT
    http://cfa-www.harvard.edu/space_geodesy/BARGEN/Data    COMMENT
                                                            COMMENT
End of DB comments                                          COMMENT
 SNR is mapped to RINEX snr flag value [1-9]                COMMENT
  L1: 3 -> 1; 8 -> 5; 40 -> 9                               COMMENT
  L2: 1 -> 1; 5 -> 5; 60 -> 9                               COMMENT
  2002    12    26     0     0   30.0000000     GPS         TIME OF FIRST OBS
                                                            END OF HEADER
 02 12 26  0  0 30.0000000  0  8G30G 4G10G 5G 9G24G 6G 7
  -4882307.22256  -3747851.26655  23119753.8984   23119760.4264
        13.5004         11.2504
    743902.41858    778123.62356  21445866.9534   21445871.6054
        31.0004         25.0004
  -3343364.22855  -2494481.57655  24055342.2034   24055352.0634
         8.2504          7.7504
  -8925531.28958  -3442062.66157  20849945.7814   20849950.7854
        34.0004         31.7504
   8899384.51556   6989679.81056  22838592.9144   22838599.4184
        19.7504         16.2504
  -8217568.01758  -6277293.77757  20585824.4694   20585829.9304
        33.5004         30.7504
    -17379.83253                  25433134.5704
         5.5004
  29417610.42755   3051777.96655  24179171.1094   24179179.4924
         8.2504          7.7504
 02 12 26  0  1  0.0000000  0  8G30G 4G10G 5G 9G24G 6G 7
  -4931179.17846  -3785933.12245  23110453.6954   23110460.2234
        14.0004         11.5004
    856420.01348    865799.68746  21467278.2734   21467283.1724
        30.7504         24.7504
  -3400636.48244  -2539108.93745  24044442.2894   24044452.4184
         7.7504          8.0004
  -8919553.69048  -3437404.72947  20851083.1644   20851088.2384
        34.0004         31.5004
   9026024.68146   7088360.40746  22862691.7814   22862698.5554
        19.5004         16.2504
  -8165351.06848  -6236605.21147  20595760.9304   20595766.4144
        33.2504         30.7504
    -48030.88242                  25427296.8364
         4.0004
  29533268.38645   3141901.00845  24201180.9614   24201186.2934
         9.5004          7.2504
 02 12 26  0  1 30.0000000  0  8G30G 4G10G 5G 9G24G 6G 7
  -4979883.38946  -3823884.29545  23101185.2974   23101191.3794
        14.2504         11.0004
    969319.88748    953773.63046  21488762.3134   21488767.0824
        31.2504         24.7504
  -3457854.25545  -2583693.79945  24033555.5704   24033567.3054
         9.0004          8.0004
  -8913144.12548  -3432410.19547  20852302.8054   20852307.8324
        34.0004         31.7504
   9152962.66246   7187273.05346  22886847.3054   22886854.0434
        19.0004         15.7504
  -8112629.11348  -6195523.13247  20605793.5944   20605798.9844
        33.2504         30.7504
    -11229.98253                  25421472.0004
         6.2504
  29648984.12845   3232069.13645  24223203.8444   24223209.9844
        10.0004          7.7504
 02 12 26  0  2  0.0000000  0  8G30G 4G10G 5G 9G24G 6G 7
  -5028424.11246  -3861708.04245  23091948.3984   23091955.2074
        14.2504         11.5004
   1082592.81548   1042038.27046  21510317.5634   21510322.1684
        31.2504         24.7504
  -3515020.99945  -2628238.90945  24022675.7344   24022684.8094
         9.0004          9.0004
  -8906307.51148  -3427082.89547  20853603.7344   20853608.8094
        34.0004         32.0004
   9280188.52646   7286410.01546  22911057.0864   22911063.6954
        18.5004         15.7504
  -8059409.85748  -6154053.54147  20615921.0634   20615926.5704
        33.2504         30.7504
    -41849.87342                  25415640.6484
         4.7504
  29764750.98145   3322277.08945  24245232.0314   24245239.5234
         9.2504          8.0004
 02 12 26  0  2 30.0000000  0  8G30G 4G10G 5G 9G24G 6G 7
  -5076797.82646  -3899401.68845  23082743.9224   23082750.1804
        14.7504         11.5004
   1196237.68748   1130592.73646  21531943.6564   21531948.3914
        31.0004         24.7504
  -3572132.00945  -2672740.55345  24011808.4224   24011818.0004
         9.7504          8.5004
  -8899040.63848  -3421420.32947  20854986.5394   20854991.5204
        34.0004         32.0004
   9407700.70146   7385770.08546  22935322.3984   22935329.2704
        18.2504         15.5004
  -8005693.23648  -6112196.39147  20626142.7734   20626148.3054
        33.2504         30.7504
    -72456.16544          .08854  25409821.7194   25409834.7424
         7.7504          4.7504
  29880570.17345   3412525.76645  24267270.4144   24267275.9104
         9.2504          7.2504
 02 12 26  0  3  0.0000000  0  8G30G 4G10G 5G 9G24G 6G 7
  -5125006.00446  -3936966.35245  23073569.6254   23073575.7544
        15.0004         11.7504
   1310248.17948   1219432.10646  21553638.6644   21553643.4574
        30.7504         24.5004
  -3629188.21645  -2717199.51545  24000949.8134   24000960.8674
         9.7504          8.5004
  -8891345.39248  -3415423.97147  20856450.6174   20856455.6334
        34.0004         31.7504
   9535492.39146   7485347.94346  22959640.5864   22959647.1954
        18.2504         15.2504
  -7951484.04448  -6069955.41447  20636458.3524   20636463.8244
        33.2504         30.5004
   -103052.77444    -23841.04145  25404001.5704   25404013.1174
         7.7504          5.5004
  29996438.16245   3502812.55745  24289321.6644   24289329.9774
         9.2504          7.7504
 02 12 26  0  3 30.0000000  0  8G30G 4G10G 5G 9G24G 6G 7
  -5173032.99346  -3974389.83846  23064429.7034   23064436.7624
        14.7504         12.0004
   1424635.05748   1308564.76946  21575405.8984   21575410.7504
        30.5004         24.5004
  -3686172.99045  -2761602.82745  23990105.1884   23990116.0784
         9.0004          8.7504
  -8883206.60448  -3409081.99947  20857999.5554   20858004.4414
        34.0004         32.0004
   9663574.14046   7585151.83446  22984013.5394   22984020.4224
        17.7504         15.2504
  -7896770.26248  -6027321.25747  20646870.0944   20646875.5204
        33.2504         30.7504
   -133626.28443    -47664.21845  25398179.2664   25398191.5744
         6.0004          5.0004
  30112368.11544   3593147.61945  24311379.8054   24311387.4964
         7.7504          7.5004
 02 12 26  0  4  0.0000000  0  8G30G 4G10G 5G 9G24G 6G 7
  -5220876.93146  -4011670.67645  23055325.5864   23055331.9144
        14.7504         11.7504
   1539395.39748   1397988.43746  21597243.9384   21597248.9884
        30.2504         24.2504
  -3743083.38345  -2805948.20745  23979275.9844   23979286.7704
        10.0004          9.0004
  -8874623.18848  -3402393.56147  20859632.8134   20859637.7584
        34.0004         32.0004
   9791942.59646   7685179.12846  23008441.1414   23008447.4344
        17.5004         15.0004
  -7841553.51948  -5984295.17547  20657377.6254   20657383.0744
        33.5004         31.0004
   -164177.19443    -71469.81845  25392364.6254   25392372.5744
         6.7504          5.0004
  30228359.89845   3683530.80645  24333454.2274   24333461.1454
         8.2504          7.7504
 02 12 26  0  4 30.0000000  0  8G30G 4G10G 5G 9G24G 6G 7
  -5268535.15446  -4048806.79545  23046256.0474   23046262.2814
        14.5004         11.5004
   1654527.01648   1487701.40946  21619152.6804   21619157.5664
        30.5004         24.0004
  -3799915.88245  -2850232.90845  23968460.2274   23968469.7704
        10.0004          9.0004
  -8865593.09848  -3395357.06647  20861351.1174   20861356.0514
        34.0004         32.0004
   9920594.68346   7785427.42546  23032922.9064   23032929.9414
        17.5004         15.0004
  -7785834.53748  -5940877.74347  20667980.5784   20667985.9924
        33.7504         31.0004
   -194705.53742    -95257.81245  25386552.4064   25386564.9844
         4.5004          5.0004
                                  24355536.0004
         6.5004
 02 12 26  0  5  0.0000000  0  8G30G 4G10G 5G 9G24G 6G 7
  -6891425.50346  -5313396.53445  22737430.7274   22737437.1604
        14.7504         11.7504
    194612.43948    350105.66546  21341340.2034   21341345.1724
        30.5004         24.0004
  -5432088.36145  -4122055.29045  23657867.8984   23657875.8714
         9.0004          9.0004
 -10431532.76648  -4615569.73747  20563362.6024   20563367.5704
        34.0004         32.0004
   8474113.30846   6658298.99946  22757666.6174   22757673.6294
        17.2504         14.5004
  -9305031.18448  -7124667.29347  20378886.8204   20378892.0824
        33.7504         31.2504
  -1800630.67943  -1346627.77845  25080954.7504   25080964.8794
         5.5004          5.0004
  -1463173.10945   2636846.45745  24077842.3054   24077849.2934
         8.2504          7.5004
 02 12 26  0  5 30.0000000  0  8G30G 4G10G 5G 9G24G 6G 7
  -6938713.33846  -5350244.03445  22728431.6094   22728438.2774
        15.0004         11.7504
    310470.91048    440385.02346  21363387.3594   21363392.3404
        30.2504         24.0004
  -5488764.11745  -4166217.86645  23647082.8134   23647092.0274
         9.5004          8.7504
 -10421611.96448  -4607839.18147  20565250.4454   20565255.4614
        34.0004         32.0004
   8603316.05646   6758976.39646  22782253.4844   22782260.3164
        17.0004         14.7504
  -9248319.12548  -7080476.03647  20389679.0004   20389684.2854
        33.7504         31.2504
  -1831121.38744  -1370386.45544  25075156.4064   25075168.3524
         7.0004          4.5004
  -1347003.05044   2727368.46745  24099948.6414   24099953.2934
         7.5004          7.0004
 02 12 26  0  6  0.0000000  0  8G30G 4G10G 5G 9G24G 6G 7
  -6985815.30246  -5386946.71145  22719468.5084   22719475.0234
        15.0004         11.7504
    426686.01548    530942.28046  21385502.5084   21385507.3244
        30.2504         23.7504
  -5545359.41545  -4210317.82645  23636313.6174   23636322.3754
         9.7504          9.0004
 -10411246.08448  -4599761.81647  20567222.8444   20567227.8954
        34.0004         32.0004
   8732786.66746   6859862.50946  22806890.7664   22806898.3524
        16.7504         14.5004
  -9191114.83348  -7035901.22247  20400564.4064   20400569.7734
        33.5004         31.0004
  -1861596.22042  -1394132.82145  25069353.8674   25069360.0904
         4.7504          5.5004
  -1559924.64353                  24122062.5784
         6.5004
 02 12 26  0  6 30.0000000  0  8G30G 4G10G 5G 9G24G 6G 7
  -7032721.74046  -5423497.03546  22710542.4304   22710548.8404
        15.0004         12.2504
    543262.72448    621781.30146  21407686.1024   21407690.8714
        30.0004         23.7504
  -5601863.51345  -4254346.71145  23625560.3834   23625570.3954
         9.0004          9.0004
 -10400425.97348  -4591330.50847  20569281.8914   20569286.9184
        34.0004         32.2504
   8862529.44846   6960960.70546  22831579.5004   22831586.4534
        16.5004         14.2504
  -9133412.58648  -6990938.39647  20411544.7424   20411550.1914
        33.5004         31.0004
  -1892047.56043  -1417860.74844  25063559.2344   25063570.3714
         5.7504          4.7504
  -1443636.43444                  24144198.3204
         7.7504
 02 12 26  0  7  0.0000000  0  8G30G 4G10G 5G 9G24G 6G 7
  -7079431.94646  -5459894.42146  22701653.4774   22701659.5594
        15.2504         12.2504
    660196.64748    712898.66646  21429937.9144   21429942.7424
        29.7504         23.7504
  -5658275.09245  -4298303.56545  23614825.5704   23614833.5664
         9.5004          9.0004
 -10389151.59048  -4582545.21847  20571427.2344   20571432.2504
        34.0004         32.5004
   8992539.93546   7062267.49146  22856319.9304   22856327.1174
        16.2504         14.0004
  -9075215.46748  -6945589.95347  20422619.2734   20422624.6644
        33.5004         31.0004
  -1922477.37043  -1441572.02345  25057767.4774   25057780.6644
         5.0004          5.5004
  -1327287.20643                  24166331.4224
         6.0004
 02 12 26  0  7 30.0000000  0  8G30G 4G10G 5G 9G24G 6G 7
  -7125945.76346  -5496138.82446  22692801.9144   22692807.8554
        15.2504         12.5004
    777483.19648    804290.80546  21452256.7664   21452261.4064
        29.2504         23.2504
  -5714592.76845  -4342187.26645  23604108.7974   23604117.7544
        10.0004          9.5004
 -10377423.20948  -4573406.16647  20573659.1024   20573664.0354
        34.0004         32.5004
   9122813.01046   7163778.91446  22881110.0004   22881117.2114
        16.2504         14.0004
  -9016526.58548  -6899858.31947  20433787.3754   20433792.8364
        33.2504         31.0004
  -1952887.53743  -1465267.89945  25051980.9304   25051990.2854
         5.0004          5.2504
  -1210878.68645  -1173174.27855  24188490.4614   24188498.9384
         9.0004          6.7504
 02 12 26  0  8  0.0000000  0  8G30G 4G10G 5G 9G24G 6G 7
  -7172265.11646  -5532231.67946  22683987.8674   22683993.8794
        15.5004         12.5004
    895115.60248    895952.43446  21474641.4534   21474646.2934
        29.0004         23.0004
  -5770817.97945  -4385998.95845  23593409.1644   23593418.0394
         9.7504         10.0004
 -10365243.79548  -4563915.66147  20575976.8984   20575981.7274
        34.0004         32.7504
   9253341.06346   7265488.99946  22905948.6484   22905956.2814
        16.5004         14.5004
  -8957351.89048  -6853748.13747  20445047.9924   20445053.2304
        33.2504         30.7504
  -1983282.59543  -1488951.95745  25046199.8984   25046208.4454
         6.7504          5.0004
  -1094415.47943  -1082423.67445  24210644.9304   24210653.8404
         6.0004          7.0004
 02 12 26  0  8 30.0000000  0  8G30G 4G10G 5G 9G24G 6G 7
  -7218375.58846  -5568161.75446  22675212.9064   22675218.7774
        15.7504         12.5004
   1013103.26348    987890.88946  21497093.7504   21497098.6024
        28.7504         23.0004
  -5826934.97545  -4429726.31245  23582731.0784   23582737.9844
        10.5004          9.0004
 -10352599.46648  -4554062.88647  20578382.9844   20578387.8834
        34.0004         32.7504
   9384133.30146   7367404.95946  22930838.0554   22930845.5004
        17.0004         14.5004
  -8897680.18148  -6807250.66847  20456403.1254   20456408.4104
        33.2504         31.0004
  -2013650.60043  -1512614.98244  25040420.0554   25040426.3594
         6.5004          4.2504
   -977885.23643   -991620.87245  24232821.3284   24232829.9104
         6.0004          6.7504
 02 12 26  0  9  0.0000000  0  8G30G 4G10G 5G 9G24G 6G 7
  -7264279.72746  -5603931.06946  22666477.8444   22666483.6914
        16.0004         12.5004
   1131438.64148   1080100.29146  21519612.2504   21519616.8324
        28.7504         23.2504
  -5882945.76945  -4473370.93945  23572071.1334   23572079.7974
         9.7504          9.7504
 -10339493.49548  -4543850.39147  20580876.7424   20580881.5824
        34.0004         32.7504
   9515181.71346   7469520.53546  22955776.4844   22955783.2234
        17.2504         14.7504
  -8837517.79748  -6760370.85847  20467851.5634   20467856.8714
        33.5004         30.7504
  -2043996.44543  -1536260.92745  25034641.4224   25034654.2344
         5.7504          5.7504
   -861292.92343   -900769.69245  24255010.2814   24255020.5514
         6.7504          7.2504
 02 12 26  0  9 30.0000000  0  8G30G 4G10G 5G 9G24G 6G 7
  -7309980.03546  -5639541.54946  22657781.1414   22657787.5044
        16.0004         13.2504
   1250114.50448   1172574.99746  21542195.3284   21542200.4264
        28.5004         23.0004
  -5938851.86645  -4516933.96845  23561433.6334   23561443.2934
        11.0004         10.0004
 -10325929.15048  -4533280.71847  20583457.9844   20583462.8244
        34.0004         32.5004
   9646478.16546   7571829.39446  22980760.9144   22980768.1604
        17.5004         14.7504
  -8776870.89848  -6713113.49947  20479392.2194   20479397.4574
        33.2504         30.7504
  -2074325.05143  -1559893.25345  25028870.3204   25028883.7894
         5.5004          5.7504
   -744643.41745   -809873.96045  24277209.8914   24277217.6994
         8.7504          6.7504
 02 12 26  0 10  0.0000000  0  8G30G 4G10G 5G 9G24G 6G 7
  -7355470.79646  -5674988.76046  22649124.7814   22649130.4774
        16.2504         13.2504
   1369131.58248   1265315.59346  21564843.6644   21564848.7734
        28.5004         22.7504
  -5994646.67645  -4560410.32445  23550814.8284   23550822.0044
        10.2504         10.0004
 -10311901.44648  -4522349.99047  20586127.3364   20586132.2114
        34.0004         32.5004
   9778023.00046   7674331.79346  23005793.5784   23005800.7774
        17.7504         14.5004
  -8715737.75448  -6665477.24947  20491025.2194   20491030.5274
        33.2504         30.7504
  -2104632.99844  -1583509.52045  25023105.4144   25023114.3594
         7.0004          5.5004
   -627933.21545   -718930.90745  24299418.7584   24299429.4844
         8.5004          7.0004
 02 12 26  0 10 30.0000000  0  8G30G 4G10G 5G 9G24G 6G 7
  -7400745.74546  -5710267.82046  22640508.6334   22640514.4924
        16.5004         12.7504
   1488490.99748   1358322.94346  21587557.1174   21587561.8284
        28.5004         22.7504
  -6050323.04245  -4603794.30345  23540221.0474   23540230.2624
        11.2504         10.5004
 -10297404.84648  -4511053.89347  20588885.8284   20588890.6804
        34.0004         32.5004
   9909817.13446   7777028.45146  23030872.7584   23030879.7344
        17.7504         14.7504
  -8654115.81348  -6617460.11947  20502751.6644   20502757.0434
        33.2504         30.7504
  -2134916.46844  -1607106.73045  25017342.7894   25017352.6724
         7.5004          6.0004
   -511158.42443   -627937.48145  24321635.0474   24321645.1054
         5.7504          7.5004
 02 12 26  0 11  0.0000000  0  8G30G 4G10G 5G 9G24G 6G 7
  -7445807.53546  -5745380.75846  22631933.4224   22631938.6254
        16.5004         13.2504
   1608185.51348   1451591.41046  21610333.9534   21610338.8284
        28.2504         22.7504
  -6105882.60045  -4647087.31745  23529647.1954   23529655.2274
        10.5004         10.0004
 -10282442.87548  -4499395.16947  20591733.0634   20591737.7974
        34.0004         32.5004
  10041852.31146   7879912.94546  23055999.2194   23056005.7344
        17.7504         14.7504
  -8592011.21448  -6569066.89047  20514569.7974   20514575.2584
        33.2504         30.7504
  -2165180.41343  -1630688.78045  25011583.5084   25011592.4884
         6.5004          6.2504
   -394323.81543   -536897.47045  24343867.5234   24343874.4534
         6.0004          6.5004
 02 12 26  0 11 30.0000000  0  8G30G 4G10G 5G 9G24G 6G 7
  -7490655.33846  -5780326.95846  22623399.0784   22623404.6914
        16.5004         13.5004
   1728210.64548   1545117.49846  21633174.0634   21633179.0314
        28.0004         22.5004
  -6161323.98346  -4690288.19045  23519098.8364   23519107.3714
        12.0004         10.0004
 -10267015.64248  -4487373.90447  20594668.6094   20594673.4264
        34.0004         32.7504
  10174123.81646   7982981.58246  23081169.1804   23081176.1094
        17.0004         14.2504
  -8529427.05648  -6520299.97847  20526479.0704   20526484.3674
        33.5004         31.0004
  -2195426.62145  -1654256.98845  25005830.1954   25005841.9884
         8.2504          5.7504
   -277431.32643   -445812.39845  24366113.2974   24366122.8284
         6.7504          6.2504
 02 12 26  0 12  0.0000000  0  8G30G 4G10G 5G 9G24G 6G 7
  -7535284.63246  -5815102.90046  22614906.5864   22614913.1024
        16.5004         12.7504
   1848566.04148   1638900.93746  21656076.9694   21656081.9024
        28.0004         22.2504
  -6216641.48045  -4733392.56545  23508571.6484   23508579.3874
        11.5004          9.7504
 -10251119.17848  -4474987.00647  20597693.5554   20597698.4304
        34.0004         32.7504
  10306631.15946   8086233.97646  23106384.3674   23106391.0704
        16.7504         14.2504
  -8466362.64148  -6471158.83647  20538479.6724   20538485.0394
        33.5004         31.0004
  -2225652.98543  -1677809.77445  25000075.5944   25000086.0864
         6.0004          6.2504
   -160478.47345   -354680.28645  24388372.3914   24388384.6764
         8.0004          6.7504
 02 12 26  0 12 30.0000000  0  8G30G 4G10G 5G 9G24G 6G 7
  -7579692.44546  -5849706.26246  22606456.0864   22606461.8984
        17.0004         13.5004
   1969249.79747   1732940.24646  21679042.0474   21679046.9924
        27.7504         22.2504
  -6271831.19345  -4776397.35245  23498069.0084   23498077.5904
        11.5004         10.5004
 -10234751.39148  -4462232.84347  20600808.1564   20600812.8444
        34.0004         32.7504
  10439371.76646   8189668.15746  23131643.7034   23131650.2894
        16.0004         13.7504
  -8402818.65748  -6421644.00847  20550571.9224   20550577.1134
        33.7504         31.2504
  -2255858.66243  -1701346.44945  24994324.5474   24994333.5164
         5.7504          6.0004
    -43464.59542   -263500.48445  24410635.7114   24410646.5084
         4.2504          6.7504
 02 12 26  0 13  0.0000000  0  8G30G 4G10G 5G 9G24G 6G 7
  -7623878.33046  -5884136.68446  22598047.5944   22598053.8054
        17.5004         13.2504
   2090257.43047   1827231.92246  21702069.1484   21702073.8134
        27.2504         22.0004
  -6326891.79146  -4819301.50945  23487592.0634   23487600.7504
        12.2504         10.5004
 -10217912.59548  -4449111.66447  20604012.4844   20604017.2304
        34.0004         33.0004
  10572340.62546   8293280.16446  23156946.7974   23156953.7734
        15.7504         13.2504
  -8338798.59548  -6371758.20447  20562754.4454   20562759.5314
        33.5004         31.2504
  -2286045.64743  -1724868.58645  24988579.0004   24988591.2034
         5.7504          6.5004
     73608.22844   -172275.01745  24432915.0394   24432924.3134
         7.0004          5.5004
 02 12 26  0 13 30.0000000  0  8G30G 4G10G 5G 9G24G 6G 7
  -7667841.39946  -5918393.48546  22589681.5474   22589687.5234
        17.5004         13.5004
   2211584.85347   1921772.78146  21725157.1174   21725161.8284
        27.2504         21.7504
  -6381821.96445  -4862104.05045  23477137.9384   23477145.5354
        11.7504         10.2504
 -10200602.77048  -4435623.45147  20607306.5704   20607311.4694
        34.0004         32.7504
  10705533.06246   8397066.41946  23182292.7974   23182300.0904
        15.5004         13.0004
  -8274305.39648  -6321503.72547  20575027.0084   20575032.2344
        33.5004         31.2504
  -2316215.55643  -1748377.35545  24982839.7734   24982850.3594
         6.2504          6.2504
    190738.74543    -81004.32445  24455204.0474   24455208.8634
         6.7504          5.5004
 02 12 26  0 14  0.0000000  0  8G30G 4G10G 5G 9G24G 6G 7
  -7711581.13446  -5952476.24846  22581358.4454   22581364.3984
        17.5004         13.5004
   2333227.56147   2016559.32646  21748305.0234   21748309.7114
        27.2504         22.0004
  -6436620.35446  -4904803.87845  23466710.2194   23466717.6524
        12.2504         10.2504
 -10182822.44448  -4421768.61247  20610689.9224   20610694.6454
        34.0004         33.2504
  10838944.01746   8501022.93246  23207680.0704   23207686.1054
        15.2504         12.5004
  -8209342.36848  -6270883.13647  20587389.0634   20587394.1024
        33.5004         31.0004
  -2346370.24443  -1771874.34545  24977101.2814   24977110.1564
         6.7504          6.0004
                                  24477510.5164
         8.0004
 02 12 26  0 14 30.0000000  0  8G30G 4G10G 5G 9G24G 6G 7
  -7755086.65746  -5986376.51446  22573078.8444   22573084.6684
        17.5004         13.7504
   2455191.26347   2111595.99646  21771513.9064   21771518.5474
        27.5004         21.7504
  -6491274.72646  -4947391.50345  23456309.8444   23456318.0394
        12.5004         10.2504
 -10164561.24548  -4407539.07047  20614165.1254   20614169.7194
        34.0004         33.5004
  10972579.09946   8605154.09646  23233110.0704   23233117.0474
        15.5004         12.7504
  -8143902.58348  -6219891.05647  20599841.7504   20599846.8594
        33.5004         31.0004
  -2376501.07545  -1795352.58145  24971370.1724   24971381.4494
         8.5004          6.5004
  -1462081.17043    101672.92245  24499815.5704   24499826.2734
         5.5004          6.2504
 02 12 26  0 15  0.0000000  0  8G30G 4G10G 5G 9G24G 6G 7
  -7798360.51146  -6020096.25246  22564844.4384   22564850.3554
        17.5004         14.0004
   2577468.70247   2206877.13346  21794782.3754   21794786.9224
        27.2504         21.7504
  -6545786.86345  -4989868.30945  23445935.7974   23445942.6414
        11.7504         10.5004
 -10145822.96248  -4392937.77047  20617730.8054   20617735.3404
        34.0004         33.5004
  11106430.16746   8709453.56846  23258580.7584   23258587.3094
        15.7504         12.7504
  -8077992.36748  -6168532.39847  20612384.0164   20612389.2194
        33.5004         31.2504
  -2406613.18344  -1818816.33945  24965637.6254   24965646.7464
         7.7504          6.0004
  -1344771.12642    193083.51145  24522135.4694   24522143.7234
         4.2504          6.0004
 02 12 26  0 15 30.0000000  0  8G30G 4G10G 5G 9G24G 6G 7
  -7841399.05346  -6053632.62446  22556653.9224   22556659.6054
        17.5004         14.0004
   2700058.18747   2302401.42146  21818110.4454   21818115.0634
        27.2504         21.5004
  -6600152.50546  -5032230.95145  23435590.5394   23435596.6454
        12.5004         10.7504
 -10126604.81148  -4377962.54947  20621387.8984   20621392.3634
        34.0004         33.7504
  11240495.28746   8813919.81846  23284093.3754   23284099.7734
        16.2504         12.7504
  -8011612.32148  -6116807.64447  20625015.6254   20625020.8874
        33.5004         31.2504
  -2436705.35345  -1842264.49545  24959912.1484   24959923.5904
         8.2504          7.0004
  -1227400.42044    284541.23945  24544475.9534   24544484.2194
         7.5004          7.0004
 02 12 26  0 16  0.0000000  0  8G30G 4G10G 5G 9G24G 6G 7
  -7884195.06046  -6086980.01946  22548510.0314   22548515.4694
        17.5004         14.0004
   2822962.46247   2398171.00046  21841498.3984   21841502.7814
        27.0004         21.5004
  -6654363.30346  -5074472.93045  23425274.5784   23425282.3404
        12.2504         10.5004
 -10106900.46648  -4362608.48147  20625137.5004   20625141.9654
        34.0004         34.0004
  11374776.26146   8918554.29546  23309646.1484   23309652.5354
        16.2504         13.2504
  -7944758.82548  -6064713.96747  20637737.5394   20637742.6844
        33.7504         31.2504
  -2466772.64045  -1865693.30445  24954191.5084   24954203.2894
         8.7504          7.2504
  -1109964.15342    376050.09445  24566825.9384   24566831.7274
         4.5004          6.2504
 02 12 26  0 16 30.0000000  0  8G30G 4G10G 5G 9G24G 6G 7
  -7926749.92446  -6120139.51346  22540412.2344   22540417.6254
        17.5004         14.2504
   2946174.78247   2494180.62146  21864944.7974   21864949.2384
        26.7504         21.2504
  -6708419.85845  -5116594.71945  23414986.8204   23414994.5354
        11.5004         10.5004
 -10086712.41948  -4346877.49747  20628979.1094   20628983.6334
        34.0004         34.0004
  11509266.12146   9023351.51546  23335239.2734   23335246.0594
        16.7504         13.5004
  -7877437.37648  -6012255.64647  20650548.4224   20650553.4964
        33.7504         31.2504
  -2496818.94145  -1889105.74945  24948472.3754   24948483.8984
         8.2504          6.5004
  -1508835.76654                  24589182.8054
         7.5004
 02 12 26  0 17  0.0000000  0  8G30G 4G10G 5G 9G24G 6G 7
  -7969065.96946  -6153112.90246  22532359.5004   22532365.1724
        17.7504         14.2504
   3069688.04747   2590424.73146  21888448.5864   21888453.2854
        26.5004         21.0004
  -6762323.68345  -5158597.53145  23404729.5314   23404736.3634
        11.7504         11.2504
 -10066044.01048  -4330772.20547  20632912.0164   20632916.6914
        34.0004         33.7504
  11643957.28346   9128305.59046  23360869.7894   23360876.8954
        16.5004         13.2504
  -7809654.39948  -5959437.69647  20663447.0944   20663452.2274
        34.0004         31.5004
  -2526849.12945  -1912505.62545  24942758.5704   24942769.9654
         8.7504          6.7504
  -1391280.33445                  24611555.3364
         9.2504
 02 12 26  0 17 30.0000000  0  8G30G 4G10G 5G 9G24G 6G 7
  -8011135.46446  -6185894.18946  22524353.7274   22524359.1884
        18.0004         14.5004
   3193504.69147   2686905.25846  21912010.1954   21912014.7304
        26.5004         20.7504
  -6816066.13746  -5200474.58845  23394503.6254   23394511.8554
        13.5004         11.0004
 -10044888.45348  -4314287.31747  20636937.8754   20636942.6334
        34.0004         33.7504
  11778851.76446   9233418.11546  23386539.6484   23386546.5434
        16.5004         13.7504
  -7741405.84548  -5906256.95647  20676434.3834   20676439.4104
        33.7504         31.5004
  -2556857.96345  -1935888.83745  24937046.5944   24937058.2584
         8.0004          6.7504
  -1273662.38643  -1151224.62055  24633931.7664   24633940.3834
         6.2504          7.5004
 02 12 26  0 18  0.0000000  0  8G30G 4G10G 5G 9G24G 6G 7
  -8052958.42446  -6218483.37946  22516395.1484   22516400.5514
        18.2504         14.7504
   3317620.01847   2783618.52046  21935628.4384   21935632.8324
        26.5004         21.0004
  -6869646.12846  -5242225.06745  23384307.8594   23384315.4224
        14.0004         11.5004
 -10023246.53448  -4297423.44347  20641056.0234   20641060.8524
        34.0004         33.7504
  11913944.05946   9338684.77146  23412246.3444   23412252.8484
        16.2504         13.7504
  -7672695.68148  -5852716.52547  20689509.3914   20689514.2194
        34.0004         31.7504
  -2586847.71845  -1959257.22145  24931340.4454   24931350.4224
         8.5004          7.0004
  -1155984.18943  -1059527.23445  24656326.9534   24656335.4774
         6.0004          5.2504
 02 12 26  0 18 30.0000000  0  8G30G 4G10G 5G 9G24G 6G 7
  -8094534.32246  -6250880.05446  22508483.3134   22508488.8674
        18.5004         15.0004
   3442029.35347   2880560.87146  21959302.7194   21959307.2544
        26.5004         20.7504
  -6923062.85746  -5283848.33245  23374141.2974   23374149.4104
        12.5004         11.7504
 -10001119.22448  -4280181.34447  20645266.6174   20645271.3524
        34.0004         33.7504
  12049228.98946   9444101.53746  23437991.1414   23437998.0704
        16.0004         13.7504
  -7603527.94248  -5798819.54247  20702671.5394   20702676.4264
        34.0004         32.0004
  -2616820.43345  -1982612.29945  24925637.5864   24925646.8714
         8.7504          7.5004
  -1038247.89645   -967784.66845  24678733.2274   24678740.8594
         9.2504          7.2504
 02 12 26  0 19  0.0000000  0  8G30G 4G10G 5G 9G24G 6G 7
  -8135856.46546  -6283079.00746  22500620.1414   22500625.7664
        18.7504         14.7504
   3566734.54247   2977733.76546  21983033.3594   21983037.5784
        26.5004         20.7504
  -6976308.72846  -5325338.46145  23364009.2344   23364016.3874
        12.7504         11.0004
  -9978500.70648  -4262556.48147  20649570.7814   20649575.4344
        34.0004         33.7504
  12184707.99846   9549669.51546  23463771.5004   23463778.5944
        15.7504         13.5004
  -7533899.83448  -5744563.83347  20715921.3364   20715926.3054
        34.0004         32.0004
  -2646771.68244  -2005950.68345  24919934.0234   24919942.6764
         7.0004          7.7504
   -920448.95043   -875993.18045  24701144.7584   24701154.7704
         6.0004          7.2504
 02 12 26  0 19 30.0000000  0  8G30G 4G10G 5G 9G24G 6G 7
  -8176928.58246  -6315083.12646  22492804.2974   22492808.9494
        19.0004         15.2504
   3691726.77647   3075130.33746  22006818.6254   22006823.2544
        26.5004         21.0004
  -7029386.23046  -5366697.39945  23353909.6254   23353917.8204
        13.2504         11.7504
  -9955395.67848  -4244552.52047  20653967.5164   20653972.0514
        34.0004         33.7504
  12320371.89846   9655381.56146  23489587.2034   23489594.6374
        15.0004         13.2504
  -7463818.75848  -5689955.16647  20729257.2814   20729262.3324
        33.7504         31.7504
  -2676707.66344  -2029277.14145  24914238.3914   24914249.2114
         7.7504          7.0004
   -802593.38545   -784157.60645  24723576.5784   24723587.9264
         8.7504          7.7504
 02 12 26  0 20  0.0000000  0  8G30G 4G10G 5G 9G24G 6G 7
  -8217746.49246  -6346889.16846  22485036.5314   22485042.1684
        18.7504         15.2504
   3817005.03847   3172749.78446  22030658.3914   22030662.6334
        26.5004         20.7504
  -7082290.61546  -5407921.45346  23343841.3674   23343849.1054
        13.0004         12.0004
  -9931801.19548  -4226167.16247  20658457.4064   20658461.9414
        34.0004         33.7504
  12456218.92246   9761236.30846  23515438.4774   23515446.0514
        14.7504         13.2504
  -7393285.21048  -5634993.91947  20742679.3444   20742684.3834
        34.0004         31.7504
  -2706626.97044  -2052590.58945  24908543.6644   24908553.2424
         7.2504          7.5004
   -684679.66945   -692276.75345  24746016.2114   24746025.7664
         9.5004          7.5004
 02 12 26  0 20 30.0000000  0  8G30G 4G10G 5G 9G24G 6G 7
  -8258309.43446  -6378496.52446  22477317.8754   22477323.8524
        18.7504         15.0004
   3942565.46847   3270589.09746  22054551.6884   22054556.1524
        26.2504         20.7504
  -7135019.93946  -5449009.09346  23333807.2344   23333815.3594
        13.2504         12.2504
  -9907717.24248  -4207400.40147  20663040.5004   20663044.9304
        34.0004         34.0004
  12592244.79546   9867230.40946  23541321.9614   23541329.1954
        14.2504         13.0004
  -7322301.89648  -5579682.21647  20756186.9384   20756192.0124
        34.0004         31.7504
  -2736530.77044  -2075892.00345  24902854.5634   24902863.4384
         7.7504          7.2504
   -566709.06743   -600351.49345  24768461.9144   24768471.9614
         6.7504          7.2504
 02 12 26  0 21  0.0000000  0  8G30G 4G10G 5G 9G24G 6G 7
  -8298602.82246  -6409893.85746  22469650.1334   22469655.4414
        19.0004         15.2504
   4068417.25447   3368655.44346  22078500.6094   22078505.1214
        26.2504         20.7504
  -7187559.33246  -5489948.72346  23323810.4384   23323817.8594
        14.7504         12.5004
  -9883130.72848  -4188242.02847  20667719.0474   20667723.4654
        34.0004         34.2504
  12728458.18346   9973370.63146  23567243.3594   23567251.3794
        14.5004         13.0004
  -7250858.36848  -5524011.90347  20769782.0944   20769787.1214
        34.0004         31.7504
  -2766407.26044  -2099172.13945  24897169.9384   24897178.8954
         7.7504          7.7504
   -448669.85544   -508372.83045  24790923.3984   24790930.9614
         7.2504          7.5004
 02 12 26  0 21 30.0000000  0  8G30G 4G10G 5G 9G24G 6G 7
  -8338619.02746  -6441075.20646  22462035.0084   22462040.3404
        19.2504         16.0004
   4194563.11547   3466950.94146  22102505.4064   22102510.3634
        25.7504         20.5004
  -7239899.80046  -5530733.34646  23313848.7504   23313856.4774
        13.2504         12.2504
  -9858035.05948  -4168686.91147  20672494.6564   20672499.1564
        34.0004         34.0004
  12864861.47846  10079658.85346  23593200.3914   23593207.4144
        14.7504         13.0004
  -7178951.59748  -5467980.61947  20783465.5474   20783470.4924
        34.0004         32.0004
  -2796251.14944  -2122426.84745  24891489.6884   24891497.0394
         7.5004          7.0004
   -330556.49245   -416336.34745  24813400.8284   24813407.6134
         8.0004          7.2504
 02 12 26  0 22  0.0000000  0  8G30G 4G10G 5G 9G24G 6G 7
  -9953788.54046  -7699648.73346  22154678.5474   22154683.9964
        19.2504         15.5004
   2745573.21247   2337867.91946  21826771.6334   21826776.1454
        25.5004         20.2504
  -8867471.33646  -6798970.71946  23004132.7274   23004140.1844
        13.2504         12.2504
 -11407859.70548  -5376342.42947  20377572.6334   20377577.0864
        34.0004         34.2504
  11426024.53446   8958487.11446  23319398.7344   23319405.4734
        14.7504         12.7504
  -8682012.11348  -6639196.58047  20497442.5474   20497447.4804
        34.0004         31.7504
  -4401494.83944  -3373265.81545  24586022.6094   24586032.0354
         7.2504          7.0004
  -1787796.40143  -1551847.81745  24536093.7664   24536104.0004
         5.0004          7.0004
 02 12 26  0 22 30.0000000  0  8G30G 4G10G 5G 9G24G 6G 7
  -9993270.29446  -7730413.61846  22147165.5234   22147170.8204
        19.5004         16.0004
   2872272.39447   2436594.57746  21850881.4144   21850886.0084
        25.2504         20.2504
  -8919431.45046  -6839458.93746  22994245.1804   22994252.6844
        14.2504         12.2504
 -11381769.17448  -5356012.09847  20382537.4064   20382541.8364
        34.0004         34.2504
  11562770.89746   9065042.65246  23345420.6484   23345427.5434
        14.5004         12.7504
  -8609210.56848  -6582468.07447  20511296.3054   20511301.2974
        34.0004         31.5004
  -4431300.78844  -3396490.98245  24580349.2734   24580359.0984
         7.0004          7.7504
  -1669561.79642  -1459716.94845  24558594.1024   24558602.8484
         4.5004          5.7504
 02 12 26  0 23  0.0000000  0  8G30G 4G10G 5G 9G24G 6G 7
 -10032482.78846  -7760968.68246  22139703.4774   22139708.8094
        19.7504         15.7504
   2999242.95047   2535532.69346  21875043.2034   21875047.7504
        25.0004         20.2504
  -8971198.15146  -6879796.46046  22984393.1484   22984401.6604
        12.7504         12.2504
 -11355180.83548  -5335293.85947  20387596.9454   20387601.3284
        34.0004         34.5004
  11699682.61646   9171727.03046  23371474.0084   23371481.4184
        14.5004         12.5004
  -8535965.89048  -6525394.27347  20525234.0554   20525238.9184
        34.0004         31.7504
  -4461089.19844  -3419702.45445  24574681.2274   24574689.3984
         7.5004          7.0004
  -3131124.22153                  24581104.0944
         5.2504
 02 12 26  0 23 30.0000000  0  8G30G 4G10G 5G 9G24G 6G 7
 -10071419.60347  -7791308.94246  22132293.9534   22132299.0634
        20.0004         16.2504
   3126485.90147   2634683.05446  21899256.6884   21899261.2934
        25.0004         19.7504
  -9022764.57746  -6919977.88846  22974581.2974   22974589.4574
        14.2504         12.2504
 -11328089.58048  -5314183.74747  20392752.2894   20392756.7544
        34.0004         34.5004
  11836760.51146   9278540.89246  23397559.2274   23397566.6844
        14.2504         12.5004
  -8462275.83348  -6467973.42247  20539256.9844   20539261.9064
        33.7504         31.5004
  -4490856.29344  -3442897.39545  24569015.7974   24569024.6954
         7.5004          7.2504
  -3012767.49943                  24603627.9384
         5.0004
 02 12 26  0 24  0.0000000  0  8G30G 4G10G 5G 9G24G 6G 7
 -10110071.51647  -7821427.19446  22124938.7584   22124943.8204
        20.0004         16.5004
   3254005.93847   2734049.33646  21923522.9534   21923527.5824
        24.7504         20.0004
  -9074120.42346  -6959995.24246  22964807.2664   22964815.4494
        13.0004         12.5004
 -11300487.42048  -5292675.52347  20398004.7584   20398009.2344
        34.0004         34.5004
  11974008.19146   9385487.06546  23423676.6174   23423684.3674
        14.2504         12.5004
  -8388135.46448  -6410201.67647  20553365.3364   20553370.4804
        33.7504         31.2504
  -4520595.14044  -3466070.28345  24563355.2584   24563363.2424
         7.2504          6.7504
  -2894341.00745                  24626167.6174
         8.7504
 02 12 26  0 24 30.0000000  0  8G30G 4G10G 5G 9G24G 6G 7
 -10148448.13047  -7851330.93246  22117635.5474   22117640.3874
        20.5004         16.0004
   3381788.06047   2833619.83946  21947839.0004   21947843.4534
        24.7504         19.5004
  -9125274.17346  -6999855.10046  22955073.2194   22955081.1334
        13.7504         12.7504
 -11272385.06248  -5270777.53647  20403352.5234   20403357.0124
        34.0004         34.5004
  12111410.64446   9492553.82446  23449822.9614   23449830.0314
        14.0004         12.5004
  -8313558.14048  -6352089.44847  20567556.8754   20567561.9144
        33.7504         31.2504
  -4550317.66544  -3489230.47345  24557699.7274   24557708.1334
         7.7504          7.2504
  -3107392.61155                  24648716.3594
         9.0004
 02 12 26  0 25  0.0000000  0  8G30G 4G10G 5G 9G24G 6G 7
 -10186540.50647  -7881013.17846  22110386.9224   22110391.5984
        21.0004         16.5004
   3509836.40347   2933397.78246  21972205.8834   21972210.2304
        24.5004         19.7504
  -9176216.33946  -7039550.10146  22945379.2664   22945387.4024
        14.2504         12.7504
 -11243775.10048  -5248484.01447  20408796.7504   20408801.2384
        34.0004         34.7504
  12248971.11946   9599743.71846  23476000.1334   23476007.4614
        14.0004         12.7504
  -8238539.54248  -6293633.37047  20581832.3674   20581837.3714
        33.7504         31.5004
  -4580017.54545  -3512373.05645  24552049.6414   24552059.8284
         8.5004          7.5004
  -3131081.78055  -2424404.93155  24671274.4614   24671283.4064
         9.2504          6.0004
 02 12 26  0 25 30.0000000  0  8G30G 4G10G 5G 9G24G 6G 7
 -10224346.99447  -7910472.66046  22103192.7424   22103197.3714
        21.5004         16.5004
   3638147.36047   3033380.36246  21996622.6334   21996626.9924
        24.5004         19.5004
  -9226944.27646  -7079078.15146  22935726.7894   22935733.8244
        15.2504         13.0004
 -11214657.09648  -5225794.61847  20414337.6254   20414342.0434
        34.0004         34.7504
  12386685.73546   9707053.72546  23502207.4454   23502215.3134
        14.2504         12.5004
  -8163082.30748  -6234835.49647  20596191.3524   20596196.2504
        34.0004         31.5004
  -4609695.74845  -3535498.67945  24546401.6724   24546409.9494
         8.5004          7.5004
  -3107346.37954                  24693844.7114
         7.0004
 02 12 26  0 26  0.0000000  0  8G30G 4G10G 5G 9G24G 6G 7
 -10261867.87847  -7939709.59746  22096052.3444   22096057.3244
        21.7504         16.7504
   3766716.04547   3133563.77046  22021088.6884   22021092.9654
        24.2504         19.2504
  -9277457.40246  -7118438.85746  22926113.3284   22926120.4694
        14.2504         13.2504
 -11185032.58548  -5202710.54547  20419974.9454   20419979.4694
        34.0004         34.5004
  12524548.67746   9814479.31146  23528440.7894   23528448.0594
        14.0004         12.7504
  -8087190.74448  -6175699.18347  20610633.1484   20610638.0124
        34.0004         31.5004
  -4639354.90944  -3558609.54745  24540756.1484   24540766.1724
         7.7504          7.7504
  -2988673.09744                  24716424.5004
         7.0004
 02 12 26  0 26 30.0000000  0  8G30G 4G10G 5G 9G24G 6G 7
 -10299098.47247  -7968720.32646  22088967.6564   22088972.1214
        22.2504         17.0004
   3895542.07347   3233947.70246  22045603.3054   22045607.5474
        23.7504         19.2504
  -9327750.23346  -7157627.87946  22916543.0554   22916551.4734
        15.0004         13.2504
 -11154898.09348  -5179229.08347  20425709.2974   20425713.7734
        34.0004         34.7504
  12662559.20246   9922019.88946  23554703.8914   23554710.9964
        13.5004         12.0004
  -8010864.46448  -6116224.12747  20625157.5554   20625162.4774
        34.0004         31.5004
  -4668992.59645  -3581703.62445  24535117.4774   24535126.5164
         8.7504          7.5004
  -2869936.56643  -2449033.81555  24739018.9924   24739025.4024
         6.2504          5.2504
 02 12 26  0 27  0.0000000  0  8G30G 4G10G 5G 9G24G 6G 7
 -10336037.32747  -7997503.72946  22081938.0784   22081942.7424
        22.2504         17.2504
   4024621.37247   3334528.99146  22070166.1724   22070170.5554
        23.5004         19.0004
  -9377820.77346  -7196643.70646  22907014.4144   22907021.7664
        14.5004         13.5004
 -11124253.81848  -5155350.38947  20431540.8524   20431545.1644
        34.0004         34.7504
  12800712.95646  10029672.07946  23580994.3594   23581002.7544
        13.5004         12.2504
  -7934106.26948  -6056412.51047  20639764.1564   20639769.0434
        34.0004         31.7504
  -4698609.86045  -3604781.85145  24529480.2344   24529490.3404
         8.0004          7.7504
  -2751137.90844  -2356463.30045  24761629.0634   24761636.7074
         7.2504          6.2504
 02 12 26  0 27 30.0000000  0  8G30G 4G10G 5G 9G24G 6G 7
 -10372677.80047  -8026054.62946  22074965.9064   22074970.5704
        22.7504         17.5004
   4153956.07947   3435309.29546  22094777.9384   22094782.7774
        23.2504         18.7504
  -9427661.62746  -7235480.55446  22897530.6414   22897537.9804
        15.7504         13.0004
 -11093094.33548  -5131070.23847  20437470.1024   20437474.3914
        34.0004         35.0004
  12939011.27346  10137436.89346  23607311.3674   23607319.7034
        13.2504         12.2504
  -7856913.94348  -5996262.61047  20654453.3204   20654458.2074
        34.0004         31.5004
  -4728202.58945  -3627840.86345  24523849.5234   24523856.8164
         8.2504          8.2504
                                  24784249.8984
         7.7504
 02 12 26  0 28  0.0000000  0  8G30G 4G10G 5G 9G24G 6G 7
 -10409027.27047  -8054378.77846  22068048.6484   22068053.3484
        23.0004         17.2504
   4283533.71547   3536278.89946  22119435.6254   22119439.6914
        23.2504         18.7504
  -9477279.14046  -7274143.38946  22888088.1024   22888094.9844
        14.7504         13.2504
 -11061428.27248  -5106395.34847  20443496.0164   20443500.3284
        34.0004         35.0004
  13077441.35246  10245304.39246  23633653.5314   23633661.9614
        13.0004         12.0004
  -7779299.14348  -5935783.50047  20669222.9224   20669227.8674
        34.0004         31.5004
  -4757780.30345  -3650888.20345  24518220.8984   24518228.6374
         8.2504          8.2504
  -3035885.69643                  24806875.1024
         6.2504
 02 12 26  0 28 30.0000000  0  8G30G 4G10G 5G 9G24G 6G 7
 -10445101.18847  -8082488.19246  22061183.8984   22061187.9884
        22.7504         17.5004
   4413333.94247   3637421.95946  22144135.7974   22144139.8754
        23.0004         18.5004
  -9526687.86746  -7312643.53246  22878685.9064   22878693.0234
        15.2504         13.5004
 -11029272.45948  -5081338.83247  20449614.9694   20449619.2704
        34.0004         35.0004
  13215982.08146  10353258.13146  23660017.5474   23660025.3914
        13.0004         12.0004
  -7701281.22648  -5874990.27647  20684069.1174   20684073.8754
        34.0004         31.5004
  -4787360.97345  -3673937.79745  24512590.2504   24512598.4694
         8.2504          8.0004
  -2916924.82243  -2449022.49055  24829513.5314   24829515.9224
         6.2504          5.2504
 02 12 26  0 29  0.0000000  0  8G30G 4G10G 5G 9G24G 6G 7
 -10480869.76847  -8110359.69746  22054377.2114   22054381.7234
        22.7504         18.0004
   4543381.40247   3738757.66446  22168882.8984   22168887.1764
        22.7504         18.2504
  -9575857.15246  -7350957.10246  22869329.3524   22869336.7624
        15.7504         12.7504
 -10996598.49548  -5055878.56247  20455832.7194   20455836.9844
        34.0004         35.0004
  13354657.65746  10461316.93946  23686406.2114   23686413.6804
        12.7504         12.0004
  -7622835.14948  -5813863.41647  20698997.0004   20699001.8874
        34.0004         31.5004
  -4816917.13645  -3696968.25745  24506966.2274   24506977.0004
         8.2504          8.0004
  -2797897.78643  -2356274.07644  24852163.4534   24852168.7734
         6.2504          4.7504
 02 12 26  0 29 30.0000000  0  8G30G 4G10G 5G 9G24G 6G 7
 -10516333.74047  -8137993.83546  22047628.5164   22047633.3094
        22.5004         17.7504
   4673670.36547   3840281.54746  22193676.1174   22193680.4654
        22.5004         17.7504
  -9624786.87446  -7389083.99646  22860017.1254   22860024.5004
        14.2504         13.5004
 -10963408.68048  -5030016.33147  20462148.4064   20462152.7424
        34.0004         35.0004
  13493461.76846  10569475.89746  23712819.9304   23712828.6414
        12.7504         12.2504
  -7543965.88848  -5752406.80147  20714005.1564   20714009.9844
        34.0004         31.5004
  -4846452.25144  -3719982.34245  24501344.9924   24501352.9414
         7.7504          7.5004
  -2678807.86142  -2263476.59245  24874820.4304   24874826.3954
         4.2504          5.5004
 02 12 26  0 30  0.0000000  0  8G30G 4G10G 5G 9G24G 6G 7
 -10551490.13947  -8165388.31246  22040937.8364   22040942.6644
        22.0004         18.0004
   4804198.90747   3941992.12346  22218514.8594   22218519.1604
        22.2504         18.0004
  -9673473.25846  -7427021.26046  22850753.1414   22850760.1174
        15.7504         13.2504
 -10929701.52648  -5003750.97647  20468562.6644   20468566.9654
        34.0004         35.0004
  13632391.90046  10677733.05145  23739257.4064   23739264.9924
        13.0004         11.7504
  -7464674.63148  -5690621.35547  20729093.7194   20729098.5234
        34.0004         31.7504
  -4875965.64945  -3742979.49745  24495729.2894   24495739.5704
         8.2504          8.0004
  -2559654.20843  -2170629.35945  24897497.8134   24897511.0944
         5.2504          5.2504
 02 12 26  0 30 30.0000000  0  8G30G 4G10G 5G 9G24G 6G 7
 -10586336.18447  -8192540.95546  22034307.1804   22034311.9964
        22.0004         17.7504
   4934964.91647   4043887.74246  22243398.4924   22243403.0634
        22.2504         18.0004
  -9721912.79846  -7464766.19746  22841534.9144   22841542.5594
        14.7504         13.5004
 -10895475.58548  -4977081.37147  20475075.5164   20475079.8284
        34.0004         35.0004
  13771445.36546  10786086.30445  23765718.4924   23765726.8284
        12.7504         11.2504
  -7384962.83348  -5628508.21147  20744262.3914   20744267.2664
        34.0004         31.7504
  -4905456.88645  -3765959.38845  24490115.7974   24490123.8984
         8.0004          8.2504
  -2440436.63043  -2077732.48545  24920185.7734   24920192.1604
         6.7504          6.2504
 02 12 26  0 31  0.0000000  0  8G30G 4G10G 5G 9G24G 6G 7
 -10620859.83847  -8219442.36646  22027737.1954   22027742.2114
        22.0004         17.7504
   5065975.48647   4145973.92746  22268329.2974   22268333.9734
        22.2504         18.0004
  -9770092.80746  -7502308.88246  22832366.4454   22832372.8094
        15.0004         13.5004
 -10860720.50148  -4949999.44647  20481689.1414   20481693.3714
        34.0004         35.0004
  13910628.80546  10894540.83245  23792204.0474   23792211.8324
        13.0004         11.5004
  -7304823.05648  -5566061.58147  20759512.4774   20759517.2934
        34.0004         31.7504
  -4934916.40445  -3788914.59345  24484512.3054   24484520.5824
         8.7504          8.2504
  -2321145.49643  -1984778.24445  24942885.1724   24942892.8164
         6.2504          5.7504
 02 12 26  0 31 30.0000000  0  8G30G 4G10G 5G 9G24G 6G 7
 -10655064.46047  -8246095.20046  22021228.3594   22021232.9304
        22.2504         18.0004
   5197222.18247   4248244.11246  22293304.4694   22293308.7344
        22.2504         18.0004
  -9818015.45846  -7539651.03546  22823247.0004   22823254.3754
        14.7504         13.5004
 -10825441.11548  -4922508.97747  20488402.6884   20488407.0124
        34.0004         35.0004
  14049933.29846  11003089.68045  23818714.1174   23818721.8914
        13.0004         11.2504
  -7224262.94248  -5503287.41147  20774842.4844   20774847.2074
        34.0004         31.7504
  -4964350.03845  -3811849.59845  24478908.2344   24478917.2504
         8.0004          8.5004
  -2201786.65143  -1891771.36844  24965597.9844   24965597.7034
         6.2504          4.7504
 02 12 26  0 32  0.0000000  0  8G30G 4G10G 5G 9G24G 6G 7
 -10688954.85747  -8272503.17446  22014778.8914   22014783.8834
        22.0004         18.2504
   5328695.03347   4350690.51946  22318323.0314   22318327.4964
        22.2504         18.2504
  -9865685.12746  -7576796.05546  22814174.7814   22814181.5084
        15.0004         13.7504
 -10789643.62448  -4894614.78847  20495214.6414   20495218.8364
        34.0004         35.2504
  14189348.20346  11111724.55345  23845242.3984   23845249.3874
        12.7504         11.0004
  -7143291.55948  -5440192.77347  20790250.8054   20790255.6094
        34.0004         31.7504
  -4993764.97745  -3834770.04445  24473313.2584   24473321.1954
         8.7504          8.5004
  -2082367.13245  -1798717.10445  24988324.7974   24988335.6994
         8.0004          8.0004
 02 12 26  0 32 30.0000000  0  8G30G 4G10G 5G 9G24G 6G 7
 -10722529.20547  -8298664.88846  22008390.0394   22008394.5634
        22.5004         18.2504
   5460391.33747   4453311.04946  22343384.0164   22343388.4344
        22.0004         18.2504
  -9913099.09946  -7613741.82346  22805153.8284   22805160.4614
        16.5004         13.7504
 -10753327.47548  -4866316.45447  20502125.3834   20502129.4614
        34.0004         35.2504
  14328870.03846  11220442.77745  23871794.3984   23871801.0084
        13.0004         11.2504
  -7061911.46348  -5376779.65847  20805736.7664   20805741.3834
        34.0004         31.7504
  -5023161.60545  -3857676.27045  24467718.1954   24467726.4144
         9.0004          7.5004
  -1962887.48543  -1705615.88445  25011057.1414   25011068.1024
         5.0004          6.5004
 02 12 26  0 33  0.0000000  0  8G30G 4G10G 5G 9G24G 6G 7
 -10755783.43247  -8324577.15446  22002061.9534   22002066.8754
        22.7504         18.5004
   5592310.09647   4556104.93046  22368487.3054   22368491.8524
        21.7504         18.0004
  -9960252.45146  -7650484.51746  22796179.9774   22796186.3754
        15.7504         13.7504
 -10716490.34848  -4837612.16447  20509135.2504   20509139.3634
        34.0004         35.2504
  14468497.12746  11329242.98545  23898363.7274   23898371.8984
        13.0004         10.7504
  -6980122.99748  -5313048.33347  20821300.5234   20821305.1414
        34.0004         31.7504
  -5052538.53745  -3880567.19845  24462127.6254   24462135.7854
         8.2504          8.0004
  -1843346.54543  -1612466.99445  25033806.7664   25033813.3634
         6.7504          5.7504
 02 12 26  0 33 30.0000000  0  8G30G 4G10G 5G 9G24G 6G 7
 -10788712.32947  -8350235.92046  21995795.6414   21995800.1764
        22.7504         18.2504
   5724451.44147   4659072.24446  22393632.8754   22393637.5984
        21.5004         18.2504
 -10007139.19246  -7687019.46546  22787257.0004   22787264.0474
        16.2504         14.5004
 -10679128.73448  -4808499.18447  20516244.9774   20516248.9964
        34.0004         35.5004
  14608229.40746  11438125.18145  23924954.4064   23924961.5124
        13.0004         10.7504
  -6897925.38048  -5248998.18847  20836942.2424   20836946.9304
        34.0004         31.7504
  -5081892.73745  -3903440.45045  24456541.9144   24456550.1564
         8.7504          7.7504
  -1723741.09843  -1519267.86745  25056567.9224   25056574.1454
         6.7504          5.0004
 02 12 26  0 34  0.0000000  0  8G30G 4G10G 5G 9G24G 6G 7
 -10821316.70447  -8375641.81646  21989591.0944   21989595.8054
        23.0004         18.7504
   5856809.63447   4762208.55046  22418819.5314   22418824.0084
        21.2504         17.5004
 -10053759.30246  -7723346.63746  22778385.3204   22778392.0704
        16.2504         14.7504
 -10641244.98748  -4778979.34247  20523453.8984   20523457.9884
        34.0004         35.5004
  14748060.60846  11547084.44945  23951563.5004   23951571.3674
        13.0004         10.7504
  -6815323.62448  -5184633.13447  20852660.7664   20852665.5004
        34.0004         31.5004
  -5111227.47845  -3926298.51845  24450959.9774   24450968.0664
         9.0004          7.7504
  -1604074.40344  -1426020.91745  25079338.9844   25079346.2894
         7.0004          5.2504
 02 12 26  0 34 30.0000000  0  8G30G 4G10G 5G 9G24G 6G 7
 -10853592.61847  -8400791.76746  21983449.1334   21983453.5164
        23.5004         19.0004
   5989383.67147   4865513.04346  22444047.5554   22444052.0204
        21.2504         17.5004
 -10100108.14646  -7759462.42946  22769566.0474   22769572.6564
        16.7504         14.7504
 -10602836.58648  -4749050.67847  20530762.8674   20530766.8284
        34.0004         35.5004
  14887989.06146  11656119.50845  23978190.6564   23978198.3014
        13.2504         11.0004
  -6732318.32748  -5119953.63647  20868455.9694   20868460.6564
        34.0004         31.5004
  -5140541.22845  -3949140.24645  24445381.2034   24445389.4104
         8.7504          8.2504
  -1484345.01544  -1332725.15145  25102124.5234   25102133.8324
         7.7504          5.7504
 02 12 26  0 35  0.0000000  0  8G30G 4G10G 5G 9G24G 6G 7
